<?xml version="1.0"?>
<JPPlatforms xmlns="urn:connexionz-co-nz:jp" xmlns:xsi="http://www.w3.org/2001/XMLSchema-instance" xsi:schemaLocation="urn:connexionz-co-nz:jp JourneyPlanner.xsd">
  <Content Expires="2010-12-14T03:32:00" />
  <Platform PlatformTag="1" Name="City Exchange (A)">
    <Position Lat="-4.353379800000000e+001" Long="1.726375730000000e+002" />
  </Platform>
  <Platform PlatformTag="2" PlatformNo="37323" Name="City Exchange (B)" RoadName="Lichfield St">
    <Position Lat="-4.353411900000000e+001" Long="1.726373400000000e+002" />
  </Platform>
  <Platform PlatformTag="3" PlatformNo="37334" Name="City Exchange (C)" RoadName="Lichfield St">
    <Position Lat="-4.353411900000000e+001" Long="1.726371900000000e+002" />
  </Platform>
  <Platform PlatformTag="4" PlatformNo="39911" Name="City Exchange (D1)" BearingToRoad="2.7112744e+002" RoadName="Colombo St">
    <Position Lat="-4.353377900000000e+001" Long="1.726366870000000e+002" />
  </Platform>
  <Platform PlatformTag="5" PlatformNo="39924" Name="City Exchange (E2)" BearingToRoad="9.1127449e+001" RoadName="Colombo St">
    <Position Lat="-4.353318461000000e+001" Long="1.726365578000000e+002" />
  </Platform>
  <Platform PlatformTag="6" PlatformNo="18177" Name="Wainoni Rd &amp; Ottawa Rd" BearingToRoad="3.0149835e+002" RoadName="Wainoni Rd">
    <Position Lat="-4.351715844000000e+001" Long="1.726867155000000e+002" />
  </Platform>
  <Platform PlatformTag="7" PlatformNo="40848" Name="Wainoni Rd &amp; Avonside Dr" BearingToRoad="1.2783343e+002" RoadName="Wainoni Rd">
    <Position Lat="-4.351480849000000e+001" Long="1.726886185000000e+002" />
  </Platform>
  <Platform PlatformTag="8" PlatformNo="18183" Name="Wainoni Rd &amp; Avonside Dr" BearingToRoad="3.0783344e+002" RoadName="Wainoni Rd">
    <Position Lat="-4.351497458000000e+001" Long="1.726886853000000e+002" />
  </Platform>
  <Platform PlatformTag="9" PlatformNo="44154" Name="Wainoni Rd &amp; Shortland St" BearingToRoad="3.0738049e+002" RoadName="Wainoni Rd">
    <Position Lat="-4.351332415000000e+001" Long="1.726903518000000e+002" />
  </Platform>
  <Platform PlatformTag="10" PlatformNo="18469" Name="Wainoni Rd &amp; Shortland St" BearingToRoad="1.2770902e+002" RoadName="Wainoni Rd">
    <Position Lat="-4.351244022000000e+001" Long="1.726912051000000e+002" />
  </Platform>
  <Platform PlatformTag="11" PlatformNo="41416" Name="Wainoni Rd &amp; Shortland St" BearingToRoad="3.2971576e+002" RoadName="Wainoni Rd">
    <Position Lat="-4.351224690000000e+001" Long="1.726920016000000e+002" />
  </Platform>
  <Platform PlatformTag="15" PlatformNo="44363" Name="Wainoni Rd &amp; Portsmouth St" BearingToRoad="3.2011142e+002" RoadName="Wainoni Rd">
    <Position Lat="-4.350880143000000e+001" Long="1.726980859000000e+002" />
  </Platform>
  <Platform PlatformTag="16" PlatformNo="40142" Name="Wainoni Rd &amp; Portsmouth St" BearingToRoad="1.3937015e+002" RoadName="Wainoni Rd">
    <Position Lat="-4.350804874000000e+001" Long="1.726989758000000e+002" />
  </Platform>
  <Platform PlatformTag="17" PlatformNo="40126" Name="Wainoni Rd &amp; Orrick Cres" BearingToRoad="1.4536937e+002" RoadName="Wainoni Rd">
    <Position Lat="-4.350661715000000e+001" Long="1.727012825000000e+002" />
  </Platform>
  <Platform PlatformTag="18" PlatformNo="40157" Name="Wainoni Rd &amp; Orrick Cres" BearingToRoad="3.2536935e+002" RoadName="Wainoni Rd">
    <Position Lat="-4.350682121000000e+001" Long="1.727012236000000e+002" />
  </Platform>
  <Platform PlatformTag="19" PlatformNo="18870" Name="Wainoni Rd &amp; Hampshire St" BearingToRoad="3.2536935e+002" RoadName="Wainoni Rd">
    <Position Lat="-4.350505532000000e+001" Long="1.727045876000000e+002" />
  </Platform>
  <Platform PlatformTag="20" PlatformNo="40103" Name="Wainoni Rd &amp; Hampshire St" BearingToRoad="1.4536937e+002" RoadName="Wainoni Rd">
    <Position Lat="-4.350489324000000e+001" Long="1.727045605000000e+002" />
  </Platform>
  <Platform PlatformTag="21" PlatformNo="18448" Name="Wainoni Rd &amp; Bexley Rd" BearingToRoad="1.4522206e+002" RoadName="Wainoni Rd">
    <Position Lat="-4.350398327000000e+001" Long="1.727062993000000e+002" />
  </Platform>
  <Platform PlatformTag="22" PlatformNo="42554" Name="Wakefield Ave &amp; Nayland St" BearingToRoad="9.7900070e+001" RoadName="Wakefield Ave">
    <Position Lat="-4.356907788200000e+001" Long="1.727589719300000e+002" />
  </Platform>
  <Platform PlatformTag="23" PlatformNo="42646" Name="Wakefield Ave &amp; Duncan St" BearingToRoad="2.9418042e+002" RoadName="Wakefield Ave">
    <Position Lat="-4.357786344800000e+001" Long="1.727564543000000e+002" />
  </Platform>
  <Platform PlatformTag="25" PlatformNo="42667" Name="Wakefield Ave &amp; Paisley St" BearingToRoad="9.6091545e+001" RoadName="Wakefield Ave">
    <Position Lat="-4.357960386800000e+001" Long="1.727560545500000e+002" />
  </Platform>
  <Platform PlatformTag="26" PlatformNo="21432" Name="Waratah St &amp; Woolley St" BearingToRoad="2.9184802e+002" RoadName="Waratah St">
    <Position Lat="-4.350620641000000e+001" Long="1.726921081000000e+002" />
  </Platform>
  <Platform PlatformTag="27" PlatformNo="21180" Name="Waratah St &amp; Woolley St" BearingToRoad="1.1184801e+002" RoadName="Waratah St">
    <Position Lat="-4.350585853000000e+001" Long="1.726921705000000e+002" />
  </Platform>
  <Platform PlatformTag="28" PlatformNo="21244" Name="Waratah St &amp; Baladin St" BearingToRoad="1.4186272e+002" RoadName="Waratah St">
    <Position Lat="-4.350418132000000e+001" Long="1.726939940000000e+002" />
  </Platform>
  <Platform PlatformTag="29" PlatformNo="21198" Name="Waratah St &amp; Baladin St" BearingToRoad="3.2387115e+002" RoadName="Waratah St">
    <Position Lat="-4.350380673000000e+001" Long="1.726949390000000e+002" />
  </Platform>
  <Platform PlatformTag="30" PlatformNo="24089" Name="Westminster St &amp; Flockton St" BearingToRoad="3.2729977e+002" RoadName="Westminster St">
    <Position Lat="-4.350326457000000e+001" Long="1.726429320000000e+002" />
  </Platform>
  <Platform PlatformTag="31" PlatformNo="24782" Name="Westminster St &amp; Flockton St" BearingToRoad="1.4729977e+002" RoadName="Westminster St">
    <Position Lat="-4.350311903000000e+001" Long="1.726429167000000e+002" />
  </Platform>
  <Platform PlatformTag="35" PlatformNo="20595" Name="Whitmore St &amp; Bealey Ave" BearingToRoad="9.4465324e+001" RoadName="Whitmore St">
    <Position Lat="-4.352028602000000e+001" Long="1.726504160000000e+002" />
  </Platform>
  <Platform PlatformTag="36" PlatformNo="20621" Name="Whitmore St &amp; Avalon St" BearingToRoad="1.3055095e+002" RoadName="Whitmore St">
    <Position Lat="-4.351878161000000e+001" Long="1.726507509000000e+002" />
  </Platform>
  <Platform PlatformTag="37" PlatformNo="21413" Name="Woolley St &amp; Glenrowan Ave" BearingToRoad="2.0706320e+002" RoadName="Woolley St">
    <Position Lat="-4.350555113000000e+001" Long="1.726892861000000e+002" />
  </Platform>
  <Platform PlatformTag="38" PlatformNo="21421" Name="Woolley St &amp; Belmont St" BearingToRoad="2.7063210e+001" RoadName="Woolley St">
    <Position Lat="-4.350570849000000e+001" Long="1.726894874000000e+002" />
  </Platform>
  <Platform PlatformTag="39" PlatformNo="23261" Name="Hargood St &amp; Oban Pl" BearingToRoad="1.2684016e+002" RoadName="Hargood St">
    <Position Lat="-4.354554141000000e+001" Long="1.726807854000000e+002" />
  </Platform>
  <Platform PlatformTag="40" PlatformNo="23889" Name="Hargood St &amp; Oban Pl" BearingToRoad="3.0684015e+002" RoadName="Hargood St">
    <Position Lat="-4.354546767000000e+001" Long="1.726810216000000e+002" />
  </Platform>
  <Platform PlatformTag="41" PlatformNo="23274" Name="Hargood St &amp; Clydesdale St" BearingToRoad="1.2684547e+002" RoadName="Hargood St">
    <Position Lat="-4.354307148000000e+001" Long="1.726832285000000e+002" />
  </Platform>
  <Platform PlatformTag="42" PlatformNo="23929" Name="Hargood St &amp; Clydesdale St" BearingToRoad="3.0684546e+002" RoadName="Hargood St">
    <Position Lat="-4.354303118000000e+001" Long="1.726834329000000e+002" />
  </Platform>
  <Platform PlatformTag="47" PlatformNo="23647" Name="Hay St &amp; Mcgregors Rd" BearingToRoad="1.6216058e+002" RoadName="Hay St">
    <Position Lat="-4.353274034000000e+001" Long="1.726853251000000e+002" />
  </Platform>
  <Platform PlatformTag="48" PlatformNo="23014" Name="Hay St &amp; Kuaka Cres" BearingToRoad="9.5564097e-001" RoadName="Hay St">
    <Position Lat="-4.353285530000000e+001" Long="1.726853006000000e+002" />
  </Platform>
  <Platform PlatformTag="49" PlatformNo="42701" Name="Head St &amp; Wiggins St" BearingToRoad="1.3035402e+002" RoadName="Head St">
    <Position Lat="-4.357526964600000e+001" Long="1.727657337240000e+002" />
  </Platform>
  <Platform PlatformTag="50" PlatformNo="42343" Name="Head St &amp; Dryden St" BearingToRoad="3.1035403e+002" RoadName="Head St">
    <Position Lat="-4.357561304300000e+001" Long="1.727655832200000e+002" />
  </Platform>
  <Platform PlatformTag="51" PlatformNo="43140" Name="Highsted Rd" BearingToRoad="3.0060580e+002" RoadName="Highsted Rd">
    <Position Lat="-4.348133972000000e+001" Long="1.725935027000000e+002" />
  </Platform>
  <Platform PlatformTag="52" PlatformNo="19087" Name="Highsted Rd" BearingToRoad="1.2060582e+002" RoadName="Highsted Rd">
    <Position Lat="-4.348117724000000e+001" Long="1.725934428000000e+002" />
  </Platform>
  <Platform PlatformTag="53" PlatformNo="17282" Name="Highsted Rd &amp; Sapphire St" BearingToRoad="3.0079611e+002" RoadName="Highsted Rd">
    <Position Lat="-4.347988713000000e+001" Long="1.725946312000000e+002" />
  </Platform>
  <Platform PlatformTag="54" PlatformNo="19073" Name="Highsted Rd &amp; Sapphire St" BearingToRoad="1.2079613e+002" RoadName="Highsted Rd">
    <Position Lat="-4.347964865000000e+001" Long="1.725946362000000e+002" />
  </Platform>
  <Platform PlatformTag="55" PlatformNo="19060" Name="Highsted Rd &amp; Glenmore Ave" BearingToRoad="1.2091045e+002" RoadName="Highsted Rd">
    <Position Lat="-4.347729398000000e+001" Long="1.725964642000000e+002" />
  </Platform>
  <Platform PlatformTag="56" PlatformNo="40979" Name="Highsted Rd &amp; Glenmore Ave" BearingToRoad="3.0091043e+002" RoadName="Highsted Rd">
    <Position Lat="-4.347716749000000e+001" Long="1.725967490000000e+002" />
  </Platform>
  <Platform PlatformTag="57" PlatformNo="19798" Name="Highsted Rd &amp; Ludhiana St" BearingToRoad="3.0099902e+002" RoadName="Highsted Rd">
    <Position Lat="-4.347591085000000e+001" Long="1.725977251000000e+002" />
  </Platform>
  <Platform PlatformTag="58" PlatformNo="20645" Name="Hills Rd &amp; Avalon St" BearingToRoad="3.0173218e+002" RoadName="Hills Rd">
    <Position Lat="-4.351840388000000e+001" Long="1.726515298000000e+002" />
  </Platform>
  <Platform PlatformTag="59" PlatformNo="20632" Name="Hills Rd &amp; Gresford St" BearingToRoad="2.7067035e+002" RoadName="Hills Rd">
    <Position Lat="-4.351662167000000e+001" Long="1.726517555000000e+002" />
  </Platform>
  <Platform PlatformTag="60" PlatformNo="20152" Name="Hills Rd &amp; Gresford St" BearingToRoad="9.0670357e+001" RoadName="Hills Rd">
    <Position Lat="-4.351637746000000e+001" Long="1.726515971000000e+002" />
  </Platform>
  <Platform PlatformTag="61" Name="Hills Rd &amp; Dudley St" BearingToRoad="2.7073917e+002" RoadName="Hills Rd">
    <Position Lat="-4.351496624500000e+001" Long="1.726517509460000e+002" />
  </Platform>
  <Platform PlatformTag="62" PlatformNo="32581" Name="Hills Rd &amp; Dudley St" BearingToRoad="9.0654068e+001" RoadName="Hills Rd">
    <Position Lat="-4.351392272000000e+001" Long="1.726515628000000e+002" />
  </Platform>
  <Platform PlatformTag="65" Name="Hills Rd &amp; Warden St" BearingToRoad="9.0717026e+001" RoadName="Hills Rd">
    <Position Lat="-4.350987939500000e+001" Long="1.726515627380000e+002" />
  </Platform>
  <Platform PlatformTag="66" PlatformNo="20451" Name="Hills Rd &amp; Warden St" BearingToRoad="2.7130899e+002" RoadName="Hills Rd">
    <Position Lat="-4.351144451000000e+001" Long="1.726517438000000e+002" />
  </Platform>
  <Platform PlatformTag="67" PlatformNo="39639" Name="Hills Rd &amp; Ailsa St" BearingToRoad="9.0683899e+001" RoadName="Hills Rd">
    <Position Lat="-4.350522531000000e+001" Long="1.726515525000000e+002" />
  </Platform>
  <Platform PlatformTag="68" PlatformNo="36760" Name="Hills Rd &amp; Ailsa St" BearingToRoad="2.7061432e+002" RoadName="Hills Rd">
    <Position Lat="-4.350501032000000e+001" Long="1.726517381000000e+002" />
  </Platform>
  <Platform PlatformTag="69" PlatformNo="37946" Name="Hills Rd &amp; Acheson Ave" BearingToRoad="9.0614311e+001" RoadName="Hills Rd">
    <Position Lat="-4.350112585000000e+001" Long="1.726514934000000e+002" />
  </Platform>
  <Platform PlatformTag="70" PlatformNo="36756" Name="Hills Rd &amp; Acheson Ave" BearingToRoad="2.7067731e+002" RoadName="Hills Rd">
    <Position Lat="-4.350090167000000e+001" Long="1.726516828000000e+002" />
  </Platform>
  <Platform PlatformTag="71" PlatformNo="36741" Name="Hills Rd &amp; Westminster St" BearingToRoad="2.4347496e+002" RoadName="Hills Rd">
    <Position Lat="-4.349723172000000e+001" Long="1.726497581000000e+002" />
  </Platform>
  <Platform PlatformTag="72" PlatformNo="37951" Name="Hills Rd &amp; Westminster St" BearingToRoad="6.3460396e+001" RoadName="Hills Rd">
    <Position Lat="-4.349729100000000e+001" Long="1.726496148000000e+002" />
  </Platform>
  <Platform PlatformTag="73" PlatformNo="36718" Name="Innes Rd &amp; Mahars Rd" BearingToRoad="1.4722537e+002" RoadName="Innes Rd">
    <Position Lat="-4.349815900000000e+001" Long="1.726416930000000e+002" />
  </Platform>
  <Platform PlatformTag="74" PlatformNo="37967" Name="Innes Rd &amp; Mahars Rd" BearingToRoad="3.2722537e+002" RoadName="Innes Rd">
    <Position Lat="-4.349798567000000e+001" Long="1.726423575000000e+002" />
  </Platform>
  <Platform PlatformTag="75" PlatformNo="36725" Name="Innes Rd &amp; Mahars Rd" BearingToRoad="1.4732988e+002" RoadName="Innes Rd">
    <Position Lat="-4.349671517000000e+001" Long="1.726446422000000e+002" />
  </Platform>
  <Platform PlatformTag="76" PlatformNo="37905" Name="Innes Rd &amp; Manuka St" BearingToRoad="3.2700464e+002" RoadName="Innes Rd">
    <Position Lat="-4.349622262000000e+001" Long="1.726459525000000e+002" />
  </Platform>
  <Platform PlatformTag="77" PlatformNo="36739" Name="Innes Rd &amp; Manuka St" BearingToRoad="1.4775189e+002" RoadName="Innes Rd">
    <Position Lat="-4.349558455000000e+001" Long="1.726469500000000e+002" />
  </Platform>
  <Platform PlatformTag="78" PlatformNo="32076" Name="Innes Rd &amp; Hills Rd" BearingToRoad="3.2701358e+002" RoadName="Innes Rd">
    <Position Lat="-4.349537022000000e+001" Long="1.726477038000000e+002" />
  </Platform>
  <Platform PlatformTag="79" PlatformNo="29755" Name="Kainga Rd &amp; Main North Rd" BearingToRoad="1.3180154e+002" RoadName="Kainga Rd">
    <Position Lat="-4.341808734000000e+001" Long="1.726540135000000e+002" />
  </Platform>
  <Platform PlatformTag="80" PlatformNo="29740" Name="Kainga Rd &amp; George Oliver Pl" BearingToRoad="1.2050517e+002" RoadName="Kainga Rd">
    <Position Lat="-4.341480389000000e+001" Long="1.726583257000000e+002" />
  </Platform>
  <Platform PlatformTag="81" PlatformNo="29176" Name="Kainga Rd &amp; George Oliver Pl" BearingToRoad="3.0050519e+002" RoadName="Kainga Rd">
    <Position Lat="-4.341481225000000e+001" Long="1.726584448000000e+002" />
  </Platform>
  <Platform PlatformTag="82" PlatformNo="29423" Name="Kainga Rd &amp; George Oliver Pl" BearingToRoad="1.5724373e+002" RoadName="Kainga Rd">
    <Position Lat="-4.341282942000000e+001" Long="1.726602365000000e+002" />
  </Platform>
  <Platform PlatformTag="83" PlatformNo="29614" Name="Kainga Rd &amp; George Oliver Pl" BearingToRoad="3.3724371e+002" RoadName="Kainga Rd">
    <Position Lat="-4.341287381000000e+001" Long="1.726603767000000e+002" />
  </Platform>
  <Platform PlatformTag="84" PlatformNo="29605" Name="Kainga Rd &amp; Seddon St" BearingToRoad="2.9582205e+002" RoadName="Kainga Rd">
    <Position Lat="-4.341074749000000e+001" Long="1.726635946000000e+002" />
  </Platform>
  <Platform PlatformTag="85" PlatformNo="29701" Name="Kainga Rd &amp; Pikes Trk" BearingToRoad="1.3460207e+002" RoadName="Kainga Rd">
    <Position Lat="-4.340820605000000e+001" Long="1.726653780000000e+002" />
  </Platform>
  <Platform PlatformTag="86" PlatformNo="23080" Name="Keighleys Rd &amp; Korora St" BearingToRoad="4.7416794e+001" RoadName="Keighleys Rd">
    <Position Lat="-4.353631778000000e+001" Long="1.726862132000000e+002" />
  </Platform>
  <Platform PlatformTag="87" PlatformNo="23610" Name="Keighleys Rd &amp; Korora St" BearingToRoad="2.2741679e+002" RoadName="Keighleys Rd">
    <Position Lat="-4.353628028000000e+001" Long="1.726863457000000e+002" />
  </Platform>
  <Platform PlatformTag="88" PlatformNo="24091" Name="Kensington Ave &amp; Westminster St" BearingToRoad="2.3735385e+002" RoadName="Kensington Ave">
    <Position Lat="-4.350118406000000e+001" Long="1.726419475000000e+002" />
  </Platform>
  <Platform PlatformTag="89" PlatformNo="24769" Name="Kensington Ave &amp; Innes Rd" BearingToRoad="5.7353844e+001" RoadName="Kensington Ave">
    <Position Lat="-4.350096022000000e+001" Long="1.726416019000000e+002" />
  </Platform>
  <Platform PlatformTag="90" PlatformNo="24101" Name="Kensington Ave &amp; Innes Rd" BearingToRoad="2.3735385e+002" RoadName="Kensington Ave">
    <Position Lat="-4.349938792000000e+001" Long="1.726402955000000e+002" />
  </Platform>
  <Platform PlatformTag="91" PlatformNo="24753" Name="Kensington Ave &amp; Innes Rd" BearingToRoad="5.7353844e+001" RoadName="Kensington Ave">
    <Position Lat="-4.349930500000000e+001" Long="1.726400837000000e+002" />
  </Platform>
  <Platform PlatformTag="92" PlatformNo="36870" Name="Kerrs Rd" BearingToRoad="2.7071857e+002" RoadName="Kerrs Rd">
    <Position Lat="-4.352568847000000e+001" Long="1.726814365000000e+002" />
  </Platform>
  <Platform PlatformTag="93" PlatformNo="11186" Name="Kerrs Rd" BearingToRoad="9.1326309e+001" RoadName="Kerrs Rd">
    <Position Lat="-4.352558448000000e+001" Long="1.726812672000000e+002" />
  </Platform>
  <Platform PlatformTag="94" PlatformNo="39558" Name="Keyes Rd" BearingToRoad="5.9834167e+001" RoadName="Keyes Rd">
    <Position Lat="-4.349795856000000e+001" Long="1.727166056000000e+002" />
  </Platform>
  <Platform PlatformTag="95" PlatformNo="39185" Name="Keyes Rd" BearingToRoad="2.3983417e+002" RoadName="Keyes Rd">
    <Position Lat="-4.349807666000000e+001" Long="1.727169017000000e+002" />
  </Platform>
  <Platform PlatformTag="96" PlatformNo="39144" Name="Keyes Rd &amp; Gresham Tce" BearingToRoad="2.5258707e+002" RoadName="Keyes Rd">
    <Position Lat="-4.350129981000000e+001" Long="1.727185721000000e+002" />
  </Platform>
  <Platform PlatformTag="97" PlatformNo="39171" Name="Keyes Rd &amp; Sinclair St" BearingToRoad="8.1194183e+001" RoadName="Keyes Rd">
    <Position Lat="-4.350169127000000e+001" Long="1.727185413000000e+002" />
  </Platform>
  <Platform PlatformTag="98" PlatformNo="39377" Name="Keyes Rd, Pratt St &amp; Rawson St" BearingToRoad="2.6072171e+002" RoadName="Keyes Rd">
    <Position Lat="-4.350454111000000e+001" Long="1.727194452000000e+002" />
  </Platform>
  <Platform PlatformTag="99" PlatformNo="39464" Name="Keyes Rd, Pratt St &amp; Rawson St" BearingToRoad="8.0721718e+001" RoadName="Keyes Rd">
    <Position Lat="-4.350483064000000e+001" Long="1.727193485000000e+002" />
  </Platform>
  <Platform PlatformTag="100" PlatformNo="39365" Name="Keyes Rd &amp; Lonsdale St" BearingToRoad="4.4855232e+001" RoadName="Keyes Rd">
    <Position Lat="-4.350699955000000e+001" Long="1.727212466000000e+002" />
  </Platform>
  <Platform PlatformTag="101" PlatformNo="39472" Name="Keyes Rd &amp; Lonsdale St" BearingToRoad="2.2485522e+002" RoadName="Keyes Rd">
    <Position Lat="-4.350703032000000e+001" Long="1.727215382000000e+002" />
  </Platform>
  <Platform PlatformTag="105" PlatformNo="23597" Name="Korora St &amp; Kawau Cres" BearingToRoad="2.7136487e+002" RoadName="Korora St">
    <Position Lat="-4.353510607000000e+001" Long="1.726861095000000e+002" />
  </Platform>
  <Platform PlatformTag="106" PlatformNo="23051" Name="Korora St &amp; Pateke Pl" BearingToRoad="9.1324020e+001" RoadName="Korora St">
    <Position Lat="-4.353443733000000e+001" Long="1.726859924000000e+002" />
  </Platform>
  <Platform PlatformTag="107" PlatformNo="18623" Name="Lake Terrace Rd &amp; De Ville Pl" BearingToRoad="4.0644821e+001" RoadName="Lake Terrace Rd">
    <Position Lat="-4.349923802000000e+001" Long="1.726821168000000e+002" />
  </Platform>
  <Platform PlatformTag="108" PlatformNo="32450" Name="Lake Terrace Rd &amp; De Ville Pl" BearingToRoad="2.2064482e+002" RoadName="Lake Terrace Rd">
    <Position Lat="-4.349915594000000e+001" Long="1.726821947000000e+002" />
  </Platform>
  <Platform PlatformTag="109" PlatformNo="12262" Name="Lake Terrace Rd &amp; Oregon Pl" BearingToRoad="2.3799800e+002" RoadName="Lake Terrace Rd">
    <Position Lat="-4.349613860000000e+001" Long="1.726788497000000e+002" />
  </Platform>
  <Platform PlatformTag="110" PlatformNo="32069" Name="Lake Terrace Rd &amp; Lakewood Dr" BearingToRoad="3.6674725e+001" RoadName="Lake Terrace Rd">
    <Position Lat="-4.349471417000000e+001" Long="1.726765135000000e+002" />
  </Platform>
  <Platform PlatformTag="111" PlatformNo="13778" Name="Lake Terrace Rd &amp; Lakewood Dr" BearingToRoad="2.0928091e+002" RoadName="Lake Terrace Rd">
    <Position Lat="-4.349453392000000e+001" Long="1.726764198000000e+002" />
  </Platform>
  <Platform PlatformTag="112" PlatformNo="13766" Name="Lake Terrace Rd &amp; Fairway Dr" BearingToRoad="2.1961501e+002" RoadName="Lake Terrace Rd">
    <Position Lat="-4.349460269000000e+001" Long="1.726656039000000e+002" />
  </Platform>
  <Platform PlatformTag="113" PlatformNo="18634" Name="Lake Terrace Rd &amp; Fairway Dr" BearingToRoad="3.9615009e+001" RoadName="Lake Terrace Rd">
    <Position Lat="-4.349464893000000e+001" Long="1.726654544000000e+002" />
  </Platform>
  <Platform PlatformTag="114" PlatformNo="13296" Name="Lake Terrace Rd &amp; Giles Pl" BearingToRoad="1.4586159e+002" RoadName="Lake Terrace Rd">
    <Position Lat="-4.349376590000000e+001" Long="1.726632127000000e+002" />
  </Platform>
  <Platform PlatformTag="115" Name="Northlands Mall" BearingToRoad="2.1640907e+002" RoadName="Langdons Rd">
    <Position Lat="-4.349433900000000e+001" Long="1.726082900000000e+002" />
  </Platform>
  <Platform PlatformTag="120" PlatformNo="29202" Name="Heyders Rd &amp; Lwr Styx Rd" BearingToRoad="8.4483543e+001" RoadName="Lower Styx Rd">
    <Position Lat="-4.343267663000000e+001" Long="1.726947591000000e+002" />
  </Platform>
  <Platform PlatformTag="121" PlatformNo="29343" Name="Lwr Styx Rd &amp; Spencerville Rd" BearingToRoad="8.4490044e+001" RoadName="Lower Styx Rd">
    <Position Lat="-4.342911934000000e+001" Long="1.726942211000000e+002" />
  </Platform>
  <Platform PlatformTag="122" PlatformNo="29336" Name="Earlham St &amp; Lwr Styx Rd" BearingToRoad="8.8031853e+001" RoadName="Lower Styx Rd">
    <Position Lat="-4.341560536000000e+001" Long="1.726930491000000e+002" />
  </Platform>
  <Platform PlatformTag="123" PlatformNo="29549" Name="Dartford St &amp; Lwr Styx Rd" BearingToRoad="1.0126217e+002" RoadName="Lower Styx Rd">
    <Position Lat="-4.341144037000000e+001" Long="1.726928809000000e+002" />
  </Platform>
  <Platform PlatformTag="124" PlatformNo="29218" Name="Dartford St &amp; Lwr Styx Rd" BearingToRoad="2.8126218e+002" RoadName="Lower Styx Rd">
    <Position Lat="-4.341144302000000e+001" Long="1.726929987000000e+002" />
  </Platform>
  <Platform PlatformTag="125" PlatformNo="29225" Name="Dartford St &amp; Lwr Styx Rd" BearingToRoad="2.8126218e+002" RoadName="Lower Styx Rd">
    <Position Lat="-4.341003874000000e+001" Long="1.726933458000000e+002" />
  </Platform>
  <Platform PlatformTag="126" PlatformNo="29153" Name="Dartford St &amp; Lwr Styx Rd" BearingToRoad="2.8126218e+002" RoadName="Lower Styx Rd">
    <Position Lat="-4.340858074000000e+001" Long="1.726936991000000e+002" />
  </Platform>
  <Platform PlatformTag="127" PlatformNo="29520" Name="Dartford St &amp; Lwr Styx Rd" BearingToRoad="1.0126217e+002" RoadName="Lower Styx Rd">
    <Position Lat="-4.340850047000000e+001" Long="1.726936061000000e+002" />
  </Platform>
  <Platform PlatformTag="128" PlatformNo="29646" Name="Dartford St &amp; Lwr Styx Rd" BearingToRoad="1.0127451e+002" RoadName="Lower Styx Rd">
    <Position Lat="-4.340663849000000e+001" Long="1.726940461000000e+002" />
  </Platform>
  <Platform PlatformTag="129" PlatformNo="29169" Name="Dartford St &amp; Lwr Styx Rd" BearingToRoad="2.8127451e+002" RoadName="Lower Styx Rd">
    <Position Lat="-4.340645850000000e+001" Long="1.726942325000000e+002" />
  </Platform>
  <Platform PlatformTag="130" PlatformNo="41485" Name="Anfield St &amp; Lwr Styx Rd" BearingToRoad="1.0127451e+002" RoadName="Lower Styx Rd">
    <Position Lat="-4.340378401000000e+001" Long="1.726947343000000e+002" />
  </Platform>
  <Platform PlatformTag="131" PlatformNo="29304" Name="Lowry Ave &amp; Denniston Cres" BearingToRoad="4.3140788e+000" RoadName="Lowry Ave">
    <Position Lat="-4.346908549000000e+001" Long="1.726238787000000e+002" />
  </Platform>
  <Platform PlatformTag="132" PlatformNo="29803" Name="Lowry Ave &amp; Grimseys Rd" BearingToRoad="4.6695609e+000" RoadName="Lowry Ave">
    <Position Lat="-4.346922724000000e+001" Long="1.726271986000000e+002" />
  </Platform>
  <Platform PlatformTag="133" PlatformNo="23773" Name="Maces Rd &amp; St Johns St" BearingToRoad="2.2193594e+002" RoadName="Maces Rd">
    <Position Lat="-4.354076355000000e+001" Long="1.726939510000000e+002" />
  </Platform>
  <Platform PlatformTag="134" PlatformNo="23760" Name="Maces Rd &amp; Bromley Rd" BearingToRoad="2.7046964e+002" RoadName="Maces Rd">
    <Position Lat="-4.353953886000000e+001" Long="1.726931351000000e+002" />
  </Platform>
  <Platform PlatformTag="135" PlatformNo="28436" Name="Madeley Rd &amp; Major Hornbrook Rd" BearingToRoad="1.5982594e+002" RoadName="Madeley Rd">
    <Position Lat="-4.357183855100000e+001" Long="1.727204917480000e+002" />
  </Platform>
  <Platform PlatformTag="136" PlatformNo="32244" Name="Madeley Rd &amp; Major Hornbrook Rd" BearingToRoad="3.3982596e+002" RoadName="Madeley Rd">
    <Position Lat="-4.357204547700000e+001" Long="1.727201209970000e+002" />
  </Platform>
  <Platform PlatformTag="137" PlatformNo="37135" Name="Main North Rd &amp; Loftus St" BearingToRoad="3.0628281e+002" RoadName="Main North Rd">
    <Position Lat="-4.349590298000000e+001" Long="1.726083852000000e+002" />
  </Platform>
  <Platform PlatformTag="139" PlatformNo="40721" Name="Main North Rd &amp; Loftus St" BearingToRoad="1.2634895e+002" RoadName="Main North Rd">
    <Position Lat="-4.349543051000000e+001" Long="1.726086354000000e+002" />
  </Platform>
  <Platform PlatformTag="140" PlatformNo="15650" Name="Northlands Mall" BearingToRoad="3.0612589e+002" RoadName="Main North Rd">
    <Position Lat="-4.349420725000000e+001" Long="1.726100378000000e+002" />
  </Platform>
  <Platform PlatformTag="141" PlatformNo="39641" Name="Northlands Mall" BearingToRoad="1.2612589e+002" RoadName="Main North Rd">
    <Position Lat="-4.349339821000000e+001" Long="1.726106056000000e+002" />
  </Platform>
  <Platform PlatformTag="142" PlatformNo="36652" Name="Main North Rd &amp; Grassmere St" BearingToRoad="1.2644357e+002" RoadName="Main North Rd">
    <Position Lat="-4.349176013000000e+001" Long="1.726122076000000e+002" />
  </Platform>
  <Platform PlatformTag="143" PlatformNo="37491" Name="Main North Rd &amp; Grassmere St" BearingToRoad="3.0647079e+002" RoadName="Main North Rd">
    <Position Lat="-4.349213211000000e+001" Long="1.726120805000000e+002" />
  </Platform>
  <Platform PlatformTag="144" PlatformNo="37933" Name="Main North Rd &amp; Vagues Rd" BearingToRoad="3.0640775e+002" RoadName="Main North Rd">
    <Position Lat="-4.348960834000000e+001" Long="1.726145182000000e+002" />
  </Platform>
  <Platform PlatformTag="145" PlatformNo="36668" Name="Main North Rd &amp; Meadow St" BearingToRoad="1.2081663e+002" RoadName="Main North Rd">
    <Position Lat="-4.348882866000000e+001" Long="1.726150605000000e+002" />
  </Platform>
  <Platform PlatformTag="146" PlatformNo="12973" Name="Main North Rd &amp; Cranford St" BearingToRoad="9.4290787e+001" RoadName="Main North Rd">
    <Position Lat="-4.348659661000000e+001" Long="1.726159796000000e+002" />
  </Platform>
  <Platform PlatformTag="147" PlatformNo="12068" Name="Main North Rd &amp; Momorangi Cres" BearingToRoad="9.4735519e+001" RoadName="Main North Rd">
    <Position Lat="-4.348182820000000e+001" Long="1.726163675000000e+002" />
  </Platform>
  <Platform PlatformTag="148" PlatformNo="12052" Name="Main North Rd &amp; Tuckers Rd" BearingToRoad="9.4448349e+001" RoadName="Main North Rd">
    <Position Lat="-4.347953995000000e+001" Long="1.726165465000000e+002" />
  </Platform>
  <Platform PlatformTag="149" PlatformNo="13347" Name="Main North Rd &amp; Manse Pl" BearingToRoad="9.4751183e+001" RoadName="Main North Rd">
    <Position Lat="-4.347723289000000e+001" Long="1.726167393000000e+002" />
  </Platform>
  <Platform PlatformTag="150" PlatformNo="13470" Name="Main North Rd &amp; Sturrocks Rd" BearingToRoad="9.4401947e+001" RoadName="Main North Rd">
    <Position Lat="-4.347492151000000e+001" Long="1.726169195000000e+002" />
  </Platform>
  <Platform PlatformTag="151" PlatformNo="13462" Name="Main North Rd &amp; Barnes Rd" BearingToRoad="9.4428642e+001" RoadName="Main North Rd">
    <Position Lat="-4.347263192000000e+001" Long="1.726171033000000e+002" />
  </Platform>
  <Platform PlatformTag="152" PlatformNo="37980" Name="Main North Rd &amp; Cranford St" BearingToRoad="2.7433548e+002" RoadName="Main North Rd">
    <Position Lat="-4.348690981000000e+001" Long="1.726162609000000e+002" />
  </Platform>
  <Platform PlatformTag="153" PlatformNo="29294" Name="Main North Rd &amp; Queen Elizabeth II Dr" BearingToRoad="2.7409158e+002" RoadName="Main North Rd">
    <Position Lat="-4.348514319000000e+001" Long="1.726164018000000e+002" />
  </Platform>
  <Platform PlatformTag="154" PlatformNo="15106" Name="Main North Rd &amp; Momorangi Cres" BearingToRoad="2.7470773e+002" RoadName="Main North Rd">
    <Position Lat="-4.348184295000000e+001" Long="1.726166609000000e+002" />
  </Platform>
  <Platform PlatformTag="155" PlatformNo="15645" Name="Main North Rd &amp; Tuckers Rd" BearingToRoad="2.7420831e+002" RoadName="Main North Rd">
    <Position Lat="-4.347967663000000e+001" Long="1.726168373000000e+002" />
  </Platform>
  <Platform PlatformTag="156" PlatformNo="40914" Name="Main North Rd &amp; Sturrocks Rd" BearingToRoad="2.7440204e+002" RoadName="Main North Rd">
    <Position Lat="-4.347466986000000e+001" Long="1.726172391000000e+002" />
  </Platform>
  <Platform PlatformTag="157" PlatformNo="42614" Name="Main North Rd &amp; Barnes Rd" BearingToRoad="2.7441876e+002" RoadName="Main North Rd">
    <Position Lat="-4.347263039000000e+001" Long="1.726174049000000e+002" />
  </Platform>
  <Platform PlatformTag="158" PlatformNo="15123" Name="Main North Rd &amp; Cunliffe Rd" BearingToRoad="2.8099036e+002" RoadName="Main North Rd">
    <Position Lat="-4.346836837000000e+001" Long="1.726177559000000e+002" />
  </Platform>
  <Platform PlatformTag="159" PlatformNo="12859" Name="Main North Rd &amp; Cunliffe Rd" BearingToRoad="1.0552959e+002" RoadName="Main North Rd">
    <Position Lat="-4.346779988000000e+001" Long="1.726177116000000e+002" />
  </Platform>
  <Platform PlatformTag="161" PlatformNo="43711" Name="Main North Rd &amp; Thompsons Rd" BearingToRoad="1.1675185e+002" RoadName="Main North Rd">
    <Position Lat="-4.345642118000000e+001" Long="1.726248862000000e+002" />
  </Platform>
  <Platform PlatformTag="162" PlatformNo="12788" Name="Main North Rd &amp; Lagan St" BearingToRoad="1.1638734e+002" RoadName="Main North Rd">
    <Position Lat="-4.345411369000000e+001" Long="1.726263949000000e+002" />
  </Platform>
  <Platform PlatformTag="163" PlatformNo="12372" Name="Main North Rd &amp; Swift St" BearingToRoad="1.1662157e+002" RoadName="Main North Rd">
    <Position Lat="-4.345222241000000e+001" Long="1.726276329000000e+002" />
  </Platform>
  <Platform PlatformTag="164" PlatformNo="12941" Name="Belfast" BearingToRoad="1.1596841e+002" RoadName="Main North Rd">
    <Position Lat="-4.344948203000000e+001" Long="1.726293527000000e+002" />
  </Platform>
  <Platform PlatformTag="165" PlatformNo="12047" Name="Main North Rd &amp; Donegal St" BearingToRoad="1.1643623e+002" RoadName="Main North Rd">
    <Position Lat="-4.344697344000000e+001" Long="1.726309880000000e+002" />
  </Platform>
  <Platform PlatformTag="166" PlatformNo="12034" Name="Main North Rd &amp; Richill St" BearingToRoad="1.1684617e+002" RoadName="Main North Rd">
    <Position Lat="-4.344521468000000e+001" Long="1.726321585000000e+002" />
  </Platform>
  <Platform PlatformTag="167" PlatformNo="12386" Name="Main North Rd &amp; Factory Rd" BearingToRoad="1.1682533e+002" RoadName="Main North Rd">
    <Position Lat="-4.344239259000000e+001" Long="1.726340343000000e+002" />
  </Platform>
  <Platform PlatformTag="168" PlatformNo="12236" Name="Main North Rd &amp; Factory Rd" BearingToRoad="1.1682533e+002" RoadName="Main North Rd">
    <Position Lat="-4.344077072000000e+001" Long="1.726351111000000e+002" />
  </Platform>
  <Platform PlatformTag="169" PlatformNo="12355" Name="Main North Rd &amp; Dickeys Rd" BearingToRoad="1.1682533e+002" RoadName="Main North Rd">
    <Position Lat="-4.343842441000000e+001" Long="1.726366557000000e+002" />
  </Platform>
  <Platform PlatformTag="170" PlatformNo="15958" Name="Main North Rd &amp; Thompsons Rd" BearingToRoad="2.9676993e+002" RoadName="Main North Rd">
    <Position Lat="-4.345729828000000e+001" Long="1.726246845000000e+002" />
  </Platform>
  <Platform PlatformTag="171" PlatformNo="32339" Name="Main North Rd &amp; Lagan St" BearingToRoad="2.9636826e+002" RoadName="Main North Rd">
    <Position Lat="-4.345409730000000e+001" Long="1.726267232000000e+002" />
  </Platform>
  <Platform PlatformTag="172" PlatformNo="15943" Name="Main North Rd &amp; Swift St" BearingToRoad="2.9647375e+002" RoadName="Main North Rd">
    <Position Lat="-4.345241169000000e+001" Long="1.726278295000000e+002" />
  </Platform>
  <Platform PlatformTag="174" PlatformNo="15936" Name="Main North Rd &amp; Donegal St" BearingToRoad="2.9644675e+002" RoadName="Main North Rd">
    <Position Lat="-4.344707929000000e+001" Long="1.726312535000000e+002" />
  </Platform>
  <Platform PlatformTag="175" PlatformNo="15927" Name="Main North Rd &amp; Richill St" BearingToRoad="2.9677707e+002" RoadName="Main North Rd">
    <Position Lat="-4.344511882000000e+001" Long="1.726325336000000e+002" />
  </Platform>
  <Platform PlatformTag="176" PlatformNo="15361" Name="Belfast" BearingToRoad="2.9676678e+002" RoadName="Main North Rd">
    <Position Lat="-4.344364876000000e+001" Long="1.726334966000000e+002" />
  </Platform>
  <Platform PlatformTag="177" PlatformNo="15388" Name="Main North Rd &amp; Factory Rd" BearingToRoad="2.9679877e+002" RoadName="Main North Rd">
    <Position Lat="-4.344140864000000e+001" Long="1.726349602000000e+002" />
  </Platform>
  <Platform PlatformTag="178" PlatformNo="15199" Name="Main North Rd" BearingToRoad="2.9679877e+002" RoadName="Main North Rd">
    <Position Lat="-4.344004350000000e+001" Long="1.726358736000000e+002" />
  </Platform>
  <Platform PlatformTag="179" PlatformNo="15201" Name="Main North Rd, Marshland Rd &amp; Spencerville Rd" BearingToRoad="3.1443509e+002" RoadName="Main North Rd">
    <Position Lat="-4.343314472000000e+001" Long="1.726493434000000e+002" />
  </Platform>
  <Platform PlatformTag="180" PlatformNo="32292" Name="Main North Rd, Marshland Rd &amp; Spencerville Rd" BearingToRoad="9.0041756e+001" RoadName="Main North Rd">
    <Position Lat="-4.343239156000000e+001" Long="1.726495562000000e+002" />
  </Platform>
  <Platform PlatformTag="181" PlatformNo="15915" Name="Main North Rd &amp; Link Rd" BearingToRoad="2.9638040e+002" RoadName="Main North Rd">
    <Position Lat="-4.342369265000000e+001" Long="1.726512174000000e+002" />
  </Platform>
  <Platform PlatformTag="183" PlatformNo="15904" Name="Kainga" BearingToRoad="2.7040848e+002" RoadName="Main North Rd">
    <Position Lat="-4.341889853000000e+001" Long="1.726528166000000e+002" />
  </Platform>
  <Platform PlatformTag="184" PlatformNo="36242" Name="Main Rd &amp; St Andrews Hill Rd" BearingToRoad="3.1847397e+002" RoadName="Main Rd">
    <Position Lat="-4.355815106400000e+001" Long="1.727102404080000e+002" />
  </Platform>
  <Platform PlatformTag="189" PlatformNo="42452" Name="Main Rd &amp; Beachville Rd" BearingToRoad="4.8002857e+001" RoadName="Main Rd">
    <Position Lat="-4.355686341300000e+001" Long="1.727322815340000e+002" />
  </Platform>
  <Platform PlatformTag="190" PlatformNo="28933" Name="Main Rd &amp; Beachville Rd" BearingToRoad="2.2800285e+002" RoadName="Main Rd">
    <Position Lat="-4.355702065500000e+001" Long="1.727326839010000e+002" />
  </Platform>
  <Platform PlatformTag="191" PlatformNo="42434" Name="Main Rd &amp; Raekura Pl" BearingToRoad="4.8002857e+001" RoadName="Main Rd">
    <Position Lat="-4.355838719400000e+001" Long="1.727341927070000e+002" />
  </Platform>
  <Platform PlatformTag="193" PlatformNo="28807" Name="Main Rd &amp; Raekura Pl" BearingToRoad="2.2800285e+002" RoadName="Main Rd">
    <Position Lat="-4.355895859900000e+001" Long="1.727351919180000e+002" />
  </Platform>
  <Platform PlatformTag="194" PlatformNo="28824" Name="Main Rd &amp; Celia St" BearingToRoad="2.2793452e+002" RoadName="Main Rd">
    <Position Lat="-4.355995488600000e+001" Long="1.727364754960000e+002" />
  </Platform>
  <Platform PlatformTag="195" PlatformNo="42410" Name="Main Rd &amp; Celia St" BearingToRoad="4.7934517e+001" RoadName="Main Rd">
    <Position Lat="-4.356008804300000e+001" Long="1.727363961910000e+002" />
  </Platform>
  <Platform PlatformTag="196" PlatformNo="30795" Name="Main Rd &amp; Augusta St" BearingToRoad="2.2801062e+002" RoadName="Main Rd">
    <Position Lat="-4.356185628200000e+001" Long="1.727389220120000e+002" />
  </Platform>
  <Platform PlatformTag="197" PlatformNo="42583" Name="Main Rd &amp; Augusta St" BearingToRoad="4.8336491e+001" RoadName="Main Rd">
    <Position Lat="-4.356226756000000e+001" Long="1.727392042550000e+002" />
  </Platform>
  <Platform PlatformTag="198" PlatformNo="42565" Name="Main Rd &amp; Wakatu Ave" BearingToRoad="3.5601765e+001" RoadName="Main Rd">
    <Position Lat="-4.356502290600000e+001" Long="1.727415702870000e+002" />
  </Platform>
  <Platform PlatformTag="199" PlatformNo="28848" Name="Main Rd &amp; Wakatu Ave" BearingToRoad="2.1560176e+002" RoadName="Main Rd">
    <Position Lat="-4.356500980900000e+001" Long="1.727417989100000e+002" />
  </Platform>
  <Platform PlatformTag="200" PlatformNo="42549" Name="Main Rd &amp; Moncks Bay Ln" BearingToRoad="9.0142101e-001" RoadName="Main Rd">
    <Position Lat="-4.356638743400000e+001" Long="1.727445905700000e+002" />
  </Platform>
  <Platform PlatformTag="201" PlatformNo="30814" Name="Main Rd &amp; Cliff St" BearingToRoad="1.8110010e+002" RoadName="Main Rd">
    <Position Lat="-4.356626884700000e+001" Long="1.727456246350000e+002" />
  </Platform>
  <Platform PlatformTag="202" PlatformNo="42508" Name="Main Rd &amp; Mulgans Trk" BearingToRoad="1.3917368e+002" RoadName="Main Rd">
    <Position Lat="-4.356626364800000e+001" Long="1.727472846810000e+002" />
  </Platform>
  <Platform PlatformTag="203" PlatformNo="28415" Name="Main Rd &amp; Clifton Tce" BearingToRoad="1.9895721e+002" RoadName="Main Rd">
    <Position Lat="-4.356393270700000e+001" Long="1.727509320740000e+002" />
  </Platform>
  <Platform PlatformTag="204" PlatformNo="42520" Name="Main Rd &amp; Clifton Tce" BearingToRoad="1.8957218e+001" RoadName="Main Rd">
    <Position Lat="-4.356413885600000e+001" Long="1.727512987250000e+002" />
  </Platform>
  <Platform PlatformTag="205" PlatformNo="30619" Name="Main Rd &amp; Marriner St" BearingToRoad="2.3043724e+002" RoadName="Main Rd">
    <Position Lat="-4.356607952700000e+001" Long="1.727559469280000e+002" />
  </Platform>
  <Platform PlatformTag="206" PlatformNo="18371" Name="Burwood Hospital" BearingToRoad="3.4118423e+002" RoadName="Mairehau Rd">
    <Position Lat="-4.348228794000000e+001" Long="1.726830987000000e+002" />
  </Platform>
  <Platform PlatformTag="207" PlatformNo="12393" Name="Mairehau Rd &amp; Royal Pk Dve" BearingToRoad="2.3102271e+002" RoadName="Mairehau Rd">
    <Position Lat="-4.348012646000000e+001" Long="1.726955438000000e+002" />
  </Platform>
  <Platform PlatformTag="209" PlatformNo="18652" Name="Mairehau Rd &amp; Daytona Pl" BearingToRoad="5.1022713e+001" RoadName="Mairehau Rd">
    <Position Lat="-4.348045453000000e+001" Long="1.726957046000000e+002" />
  </Platform>
  <Platform PlatformTag="210" PlatformNo="12099" Name="Mairehau Rd &amp; Inwoods Rd" BearingToRoad="2.0725475e+002" RoadName="Mairehau Rd">
    <Position Lat="-4.348224018000000e+001" Long="1.726991865000000e+002" />
  </Platform>
  <Platform PlatformTag="211" PlatformNo="18668" Name="Mairehau Rd &amp; Inwoods Rd" BearingToRoad="2.7254740e+001" RoadName="Mairehau Rd">
    <Position Lat="-4.348230749000000e+001" Long="1.726989956000000e+002" />
  </Platform>
  <Platform PlatformTag="212" PlatformNo="18675" Name="Mairehau Rd &amp; Tapiri St" BearingToRoad="9.0108971e+001" RoadName="Mairehau Rd">
    <Position Lat="-4.348490717000000e+001" Long="1.727014924000000e+002" />
  </Platform>
  <Platform PlatformTag="213" PlatformNo="12197" Name="Mairehau Rd &amp; Medina Cres" BearingToRoad="2.7033972e+002" RoadName="Mairehau Rd">
    <Position Lat="-4.348516389000000e+001" Long="1.727016482000000e+002" />
  </Platform>
  <Platform PlatformTag="214" PlatformNo="36203" Name="Major Hornbrook Rd &amp; St Andrews Hill Rd" BearingToRoad="2.8750873e+002" RoadName="Major Hornbrook Rd">
    <Position Lat="-4.355984260500000e+001" Long="1.727176119790000e+002" />
  </Platform>
  <Platform PlatformTag="215" PlatformNo="36371" Name="Major Hornbrook Rd &amp; Billy's Trk" BearingToRoad="3.0279065e+002" RoadName="Major Hornbrook Rd">
    <Position Lat="-4.356151713400000e+001" Long="1.727166472720000e+002" />
  </Platform>
  <Platform PlatformTag="216" PlatformNo="30661" Name="Major Hornbrook Rd &amp; Billy's Trk" BearingToRoad="1.2279064e+002" RoadName="Major Hornbrook Rd">
    <Position Lat="-4.356161940000000e+001" Long="1.727164555990000e+002" />
  </Platform>
  <Platform PlatformTag="217" PlatformNo="30776" Name="Major Hornbrook Rd &amp; Billy's Trk" BearingToRoad="9.7311172e+001" RoadName="Major Hornbrook Rd">
    <Position Lat="-4.356306678600000e+001" Long="1.727160224790000e+002" />
  </Platform>
  <Platform PlatformTag="218" PlatformNo="36005" Name="Major Hornbrook Rd &amp; Billy's Trk" BearingToRoad="2.8560147e+002" RoadName="Major Hornbrook Rd">
    <Position Lat="-4.356327696200000e+001" Long="1.727161621410000e+002" />
  </Platform>
  <Platform PlatformTag="219" PlatformNo="32200" Name="Major Hornbrook Rd &amp; Freeman St" BearingToRoad="6.4042999e+001" RoadName="Major Hornbrook Rd">
    <Position Lat="-4.356544158700000e+001" Long="1.727153774520000e+002" />
  </Platform>
  <Platform PlatformTag="220" PlatformNo="32179" Name="Major Hornbrook Rd &amp; Freeman St" BearingToRoad="2.4404300e+002" RoadName="Major Hornbrook Rd">
    <Position Lat="-4.356553526200000e+001" Long="1.727155844100000e+002" />
  </Platform>
  <Platform PlatformTag="221" PlatformNo="32167" Name="Major Hornbrook Rd &amp; Muritai Tce" BearingToRoad="2.5123741e+002" RoadName="Major Hornbrook Rd">
    <Position Lat="-4.356577451000000e+001" Long="1.727169150120000e+002" />
  </Platform>
  <Platform PlatformTag="222" PlatformNo="30748" Name="Major Hornbrook Rd &amp; Muritai Tce" BearingToRoad="1.4037785e+002" RoadName="Major Hornbrook Rd">
    <Position Lat="-4.356619922900000e+001" Long="1.727166873770000e+002" />
  </Platform>
  <Platform PlatformTag="223" PlatformNo="32216" Name="Major Hornbrook Rd &amp; Muritai Tce" BearingToRoad="4.8771477e+001" RoadName="Major Hornbrook Rd">
    <Position Lat="-4.356698248700000e+001" Long="1.727156875260000e+002" />
  </Platform>
  <Platform PlatformTag="224" PlatformNo="28600" Name="Major Hornbrook Rd &amp; Muritai Tce" BearingToRoad="2.2877148e+002" RoadName="Major Hornbrook Rd">
    <Position Lat="-4.356714005600000e+001" Long="1.727160533570000e+002" />
  </Platform>
  <Platform PlatformTag="225" PlatformNo="28443" Name="Major Hornbrook Rd &amp; Belleview Tce" BearingToRoad="2.1351816e+002" RoadName="Major Hornbrook Rd">
    <Position Lat="-4.356937725400000e+001" Long="1.727162994780000e+002" />
  </Platform>
  <Platform PlatformTag="226" PlatformNo="32237" Name="Major Hornbrook Rd &amp; Belleview Tce" BearingToRoad="3.3518154e+001" RoadName="Major Hornbrook Rd">
    <Position Lat="-4.356961219200000e+001" Long="1.727166214630000e+002" />
  </Platform>
  <Platform PlatformTag="227" PlatformNo="32151" Name="Major Hornbrook Rd &amp; Rockview Pl" BearingToRoad="2.3509984e+002" RoadName="Major Hornbrook Rd">
    <Position Lat="-4.357082962500000e+001" Long="1.727185407200000e+002" />
  </Platform>
  <Platform PlatformTag="228" PlatformNo="28254" Name="Major Hornbrook Rd &amp; Rockview Pl" BearingToRoad="5.5209377e+001" RoadName="Major Hornbrook Rd">
    <Position Lat="-4.357097016900000e+001" Long="1.727185309200000e+002" />
  </Platform>
  <Platform PlatformTag="229" PlatformNo="18606" Name="Marine Pde &amp; Pandora St" BearingToRoad="7.5845428e+001" RoadName="Marine Pde">
    <Position Lat="-4.348811848000000e+001" Long="1.727239823000000e+002" />
  </Platform>
  <Platform PlatformTag="231" PlatformNo="18033" Name="Marine Pde &amp; Effingham St" BearingToRoad="7.6613007e+001" RoadName="Marine Pde">
    <Position Lat="-4.349010987000000e+001" Long="1.727247021000000e+002" />
  </Platform>
  <Platform PlatformTag="233" PlatformNo="18046" Name="Marine Pde &amp; Cygnet St" BearingToRoad="7.6618042e+001" RoadName="Marine Pde">
    <Position Lat="-4.349224969000000e+001" Long="1.727254879000000e+002" />
  </Platform>
  <Platform PlatformTag="234" PlatformNo="12178" Name="Marine Pde &amp; Cygnet St" BearingToRoad="2.5729153e+002" RoadName="Marine Pde">
    <Position Lat="-4.349281327000000e+001" Long="1.727258211000000e+002" />
  </Platform>
  <Platform PlatformTag="235" PlatformNo="18257" Name="Marine Pde &amp; Bowhill Rd" BearingToRoad="7.7261932e+001" RoadName="Marine Pde">
    <Position Lat="-4.349485139000000e+001" Long="1.727263865000000e+002" />
  </Platform>
  <Platform PlatformTag="236" PlatformNo="12166" Name="Marine Pde &amp; Bowhill Rd" BearingToRoad="2.5676563e+002" RoadName="Marine Pde">
    <Position Lat="-4.349606477000000e+001" Long="1.727269352000000e+002" />
  </Platform>
  <Platform PlatformTag="237" PlatformNo="18566" Name="Marine Pde &amp; Rawhiti Ave" BearingToRoad="7.6765640e+001" RoadName="Marine Pde">
    <Position Lat="-4.349989203000000e+001" Long="1.727280738000000e+002" />
  </Platform>
  <Platform PlatformTag="238" PlatformNo="12150" Name="Marine Pde &amp; Rawhiti Ave" BearingToRoad="2.5593350e+002" RoadName="Marine Pde">
    <Position Lat="-4.350134732000000e+001" Long="1.727287903000000e+002" />
  </Platform>
  <Platform PlatformTag="239" PlatformNo="18226" Name="Marine Pde &amp; Lonsdale St" BearingToRoad="7.5933502e+001" RoadName="Marine Pde">
    <Position Lat="-4.350237811000000e+001" Long="1.727290036000000e+002" />
  </Platform>
  <Platform PlatformTag="240" PlatformNo="12145" Name="Marine Pde &amp; Lonsdale St" BearingToRoad="2.5561365e+002" RoadName="Marine Pde">
    <Position Lat="-4.350300059000000e+001" Long="1.727294272000000e+002" />
  </Platform>
  <Platform PlatformTag="241" PlatformNo="40277" Name="Marine Pde &amp; Hawke St" BearingToRoad="7.6154373e+001" RoadName="Marine Pde">
    <Position Lat="-4.350496239000000e+001" Long="1.727299770000000e+002" />
  </Platform>
  <Platform PlatformTag="242" PlatformNo="18235" Name="Marine Pde &amp; Hawke St" BearingToRoad="2.5615439e+002" RoadName="Marine Pde">
    <Position Lat="-4.350549168000000e+001" Long="1.727303726000000e+002" />
  </Platform>
  <Platform PlatformTag="243" PlatformNo="15451" Name="Marlow Rd &amp; Hampshire St" BearingToRoad="2.5592367e+001" RoadName="Marlow Rd">
    <Position Lat="-4.351146134000000e+001" Long="1.727019640000000e+002" />
  </Platform>
  <Platform PlatformTag="244" PlatformNo="42577" Name="Marriner St &amp; Main Rd" BearingToRoad="4.5279388e+001" RoadName="Marriner St">
    <Position Lat="-4.356683143200000e+001" Long="1.727567205440000e+002" />
  </Platform>
  <Platform PlatformTag="245" PlatformNo="30635" Name="Marriner St &amp; Richmond Hill Wlk" BearingToRoad="2.2527939e+002" RoadName="Marriner St">
    <Position Lat="-4.356730956800000e+001" Long="1.727576604020000e+002" />
  </Platform>
  <Platform PlatformTag="247" PlatformNo="18288" Name="The Palms" BearingToRoad="2.6634726e+002" RoadName="Marshland Rd">
    <Position Lat="-4.350727534000000e+001" Long="1.726629179000000e+002" />
  </Platform>
  <Platform PlatformTag="249" PlatformNo="43949" Name="Marshland Rd &amp; Hercules St" BearingToRoad="2.6691843e+002" RoadName="Marshland Rd">
    <Position Lat="-4.350523066000000e+001" Long="1.726627087000000e+002" />
  </Platform>
  <Platform PlatformTag="250" PlatformNo="13306" Name="Marshland Rd &amp; Alma Pl" BearingToRoad="8.6834549e+001" RoadName="Marshland Rd">
    <Position Lat="-4.350501785000000e+001" Long="1.726624694000000e+002" />
  </Platform>
  <Platform PlatformTag="251" PlatformNo="12258" Name="Marshland Rd &amp; Hammersley Ave" BearingToRoad="8.6842102e+001" RoadName="Marshland Rd">
    <Position Lat="-4.350356679000000e+001" Long="1.726623095000000e+002" />
  </Platform>
  <Platform PlatformTag="252" PlatformNo="18610" Name="Marshland Rd &amp; Hammersley Ave" BearingToRoad="2.6684210e+002" RoadName="Marshland Rd">
    <Position Lat="-4.350326966000000e+001" Long="1.726624784000000e+002" />
  </Platform>
  <Platform PlatformTag="253" PlatformNo="18647" Name="Marshland Rd &amp; Amos Pl" BearingToRoad="2.6689014e+002" RoadName="Marshland Rd">
    <Position Lat="-4.350146095000000e+001" Long="1.726622885000000e+002" />
  </Platform>
  <Platform PlatformTag="254" PlatformNo="12243" Name="Marshland Rd &amp; Joy St" BearingToRoad="8.6890129e+001" RoadName="Marshland Rd">
    <Position Lat="-4.350094089000000e+001" Long="1.726620672000000e+002" />
  </Platform>
  <Platform PlatformTag="255" PlatformNo="12477" Name="Marshland Rd &amp; Pagoda St" BearingToRoad="8.6881798e+001" RoadName="Marshland Rd">
    <Position Lat="-4.349866486000000e+001" Long="1.726618270000000e+002" />
  </Platform>
  <Platform PlatformTag="256" PlatformNo="18521" Name="Marshland Rd &amp; Voss St" BearingToRoad="2.6668475e+002" RoadName="Marshland Rd">
    <Position Lat="-4.349786695000000e+001" Long="1.726619049000000e+002" />
  </Platform>
  <Platform PlatformTag="257" PlatformNo="12465" Name="Marshland Rd &amp; Cotton St" BearingToRoad="8.6671509e+001" RoadName="Marshland Rd">
    <Position Lat="-4.349563392000000e+001" Long="1.726615029000000e+002" />
  </Platform>
  <Platform PlatformTag="258" PlatformNo="43954" Name="Marshland Rd &amp; Cotton St" BearingToRoad="2.6667151e+002" RoadName="Marshland Rd">
    <Position Lat="-4.349549736000000e+001" Long="1.726616761000000e+002" />
  </Platform>
  <Platform PlatformTag="259" PlatformNo="43912" Name="Marshland Rd &amp; Mcsaveneys Rd" BearingToRoad="8.6833069e+001" RoadName="Marshland Rd">
    <Position Lat="-4.348480882000000e+001" Long="1.726604042000000e+002" />
  </Platform>
  <Platform PlatformTag="260" PlatformNo="43931" Name="Marshland Rd &amp; Mcsaveneys Rd" BearingToRoad="2.6683307e+002" RoadName="Marshland Rd">
    <Position Lat="-4.348479232000000e+001" Long="1.726605927000000e+002" />
  </Platform>
  <Platform PlatformTag="261" PlatformNo="42111" Name="Heathcote" BearingToRoad="1.7848926e+002" RoadName="Martindales Rd">
    <Position Lat="-4.357574661000000e+001" Long="1.727105840000000e+002" />
  </Platform>
  <Platform PlatformTag="262" PlatformNo="42130" Name="Heathcote" BearingToRoad="3.5848926e+002" RoadName="Martindales Rd">
    <Position Lat="-4.357585078000000e+001" Long="1.727104534000000e+002" />
  </Platform>
  <Platform PlatformTag="263" PlatformNo="42153" Name="Martindales Rd, Station Rd &amp; Truscotts Rd" BearingToRoad="3.5778632e+002" RoadName="Martindales Rd">
    <Position Lat="-4.357597780000000e+001" Long="1.727077509000000e+002" />
  </Platform>
  <Platform PlatformTag="264" PlatformNo="42021" Name="Martindales Rd, Station Rd &amp; Truscotts Rd" BearingToRoad="1.7778633e+002" RoadName="Martindales Rd">
    <Position Lat="-4.357589576000000e+001" Long="1.727073911000000e+002" />
  </Platform>
  <Platform PlatformTag="265" PlatformNo="25100" Name="Mays Rd &amp; Scotston Ave" BearingToRoad="1.4722006e+002" RoadName="Mays Rd">
    <Position Lat="-4.350344459000000e+001" Long="1.726197903000000e+002" />
  </Platform>
  <Platform PlatformTag="266" PlatformNo="25320" Name="Mays Rd &amp; Scotston Ave" BearingToRoad="3.2722006e+002" RoadName="Mays Rd">
    <Position Lat="-4.350354785000000e+001" Long="1.726198832000000e+002" />
  </Platform>
  <Platform PlatformTag="267" PlatformNo="32271" Name="Mays Rd &amp; Mathias St" BearingToRoad="1.4722569e+002" RoadName="Mays Rd">
    <Position Lat="-4.350240654000000e+001" Long="1.726219136000000e+002" />
  </Platform>
  <Platform PlatformTag="268" PlatformNo="26820" Name="Ferner St &amp; Mcbratneys Rd" BearingToRoad="3.5191379e+002" RoadName="McBratneys Rd">
    <Position Lat="-4.351310492000000e+001" Long="1.726785884000000e+002" />
  </Platform>
  <Platform PlatformTag="269" PlatformNo="21259" Name="Ferner St &amp; Mcbratneys Rd" BearingToRoad="1.7198817e+002" RoadName="McBratneys Rd">
    <Position Lat="-4.351288557000000e+001" Long="1.726792001000000e+002" />
  </Platform>
  <Platform PlatformTag="271" PlatformNo="32715" Name="Mccormacks Bay Rd &amp; Soleares Ave" BearingToRoad="2.2211101e+002" RoadName="McCormacks Bay Rd">
    <Position Lat="-4.355766507800000e+001" Long="1.727230357490000e+002" />
  </Platform>
  <Platform PlatformTag="273" PlatformNo="36359" Name="Maffeys Rd &amp; Mccormacks Bay Rd" BearingToRoad="2.2607945e+002" RoadName="McCormacks Bay Rd">
    <Position Lat="-4.355947183100000e+001" Long="1.727254989870000e+002" />
  </Platform>
  <Platform PlatformTag="274" PlatformNo="30707" Name="Basil Pl &amp; Mccormacks Bay Rd" BearingToRoad="5.2117138e+000" RoadName="McCormacks Bay Rd">
    <Position Lat="-4.356049481800000e+001" Long="1.727276170120000e+002" />
  </Platform>
  <Platform PlatformTag="275" PlatformNo="36363" Name="Mt Pleasant" BearingToRoad="1.8521172e+002" RoadName="McCormacks Bay Rd">
    <Position Lat="-4.356039403700000e+001" Long="1.727276984010000e+002" />
  </Platform>
  <Platform PlatformTag="276" PlatformNo="30711" Name="Mt Pleasant" BearingToRoad="3.1492020e+002" RoadName="McCormacks Bay Rd">
    <Position Lat="-4.355856567100000e+001" Long="1.727292490640000e+002" />
  </Platform>
  <Platform PlatformTag="277" PlatformNo="32631" Name="Mt Pleasant Rd &amp; Drayton Dr" BearingToRoad="2.4619415e+002" RoadName="Mt Pleasant Rd">
    <Position Lat="-4.356803886800000e+001" Long="1.727211772190000e+002" />
  </Platform>
  <Platform PlatformTag="279" PlatformNo="36067" Name="Mt Pleasant Rd &amp; Belleview Tce" BearingToRoad="1.6660151e+001" RoadName="Mt Pleasant Rd">
    <Position Lat="-4.357029159500000e+001" Long="1.727211006840000e+002" />
  </Platform>
  <Platform PlatformTag="280" PlatformNo="42531" Name="Nayland St &amp; Stoke St" BearingToRoad="4.0469498e+001" RoadName="Nayland St">
    <Position Lat="-4.357041020200000e+001" Long="1.727604482100000e+002" />
  </Platform>
  <Platform PlatformTag="281" PlatformNo="30657" Name="Nayland St &amp; Stoke St" BearingToRoad="2.2046950e+002" RoadName="Nayland St">
    <Position Lat="-4.357035468300000e+001" Long="1.727606071470000e+002" />
  </Platform>
  <Platform PlatformTag="282" PlatformNo="42786" Name="Nayland St &amp; Hardwicke St" BearingToRoad="4.0447624e+001" RoadName="Nayland St">
    <Position Lat="-4.357158087600000e+001" Long="1.727624293480000e+002" />
  </Platform>
  <Platform PlatformTag="283" PlatformNo="30642" Name="Nayland St &amp; Hardwicke St" BearingToRoad="2.2044763e+002" RoadName="Nayland St">
    <Position Lat="-4.357158343400000e+001" Long="1.727627118760000e+002" />
  </Platform>
  <Platform PlatformTag="284" PlatformNo="42740" Name="Nayland St &amp; Menzies St" BearingToRoad="4.0513660e+001" RoadName="Nayland St">
    <Position Lat="-4.357293600000000e+001" Long="1.727647275340000e+002" />
  </Platform>
  <Platform PlatformTag="285" PlatformNo="30626" Name="Nayland St &amp; Menzies St" BearingToRoad="2.2051366e+002" RoadName="Nayland St">
    <Position Lat="-4.357290046800000e+001" Long="1.727649169880000e+002" />
  </Platform>
  <Platform PlatformTag="286" PlatformNo="42793" Name="Nayland St &amp; Head St" BearingToRoad="4.0729237e+001" RoadName="Nayland St">
    <Position Lat="-4.357403181200000e+001" Long="1.727665792060000e+002" />
  </Platform>
  <Platform PlatformTag="287" PlatformNo="42651" Name="Nayland St &amp; Head St" BearingToRoad="2.2072923e+002" RoadName="Nayland St">
    <Position Lat="-4.357400576900000e+001" Long="1.727667918630000e+002" />
  </Platform>
  <Platform PlatformTag="288" PlatformNo="39527" Name="The Palms" BearingToRoad="1.7890433e+002" RoadName="New Brighton Rd">
    <Position Lat="-4.350794979000000e+001" Long="1.726642372000000e+002" />
  </Platform>
  <Platform PlatformTag="289" PlatformNo="39618" Name="New Brighton Rd &amp; Netherby Ln" BearingToRoad="3.5109174e+002" RoadName="New Brighton Rd">
    <Position Lat="-4.350796703000000e+001" Long="1.726658094000000e+002" />
  </Platform>
  <Platform PlatformTag="290" PlatformNo="39279" Name="New Brighton Rd &amp; Bampton St" BearingToRoad="3.1320029e+002" RoadName="New Brighton Rd">
    <Position Lat="-4.350744700000000e+001" Long="1.726680180000000e+002" />
  </Platform>
  <Platform PlatformTag="293" PlatformNo="39349" Name="New Brighton Rd &amp; Kingsford St" BearingToRoad="1.7157120e+002" RoadName="New Brighton Rd">
    <Position Lat="-4.350525246000000e+001" Long="1.726754563000000e+002" />
  </Platform>
  <Platform PlatformTag="294" PlatformNo="39331" Name="New Brighton Rd &amp; Queensbury St" BearingToRoad="1.7639137e+002" RoadName="New Brighton Rd">
    <Position Lat="-4.350529962000000e+001" Long="1.726781525000000e+002" />
  </Platform>
  <Platform PlatformTag="295" PlatformNo="39320" Name="New Brighton Rd &amp; Queensbury St" BearingToRoad="3.5639136e+002" RoadName="New Brighton Rd">
    <Position Lat="-4.350540948000000e+001" Long="1.726782308000000e+002" />
  </Platform>
  <Platform PlatformTag="296" PlatformNo="39057" Name="New Brighton Rd &amp; Locksley Ave" BearingToRoad="2.9331213e+002" RoadName="New Brighton Rd">
    <Position Lat="-4.350298500000000e+001" Long="1.726828260000000e+002" />
  </Platform>
  <Platform PlatformTag="297" PlatformNo="39396" Name="New Brighton Rd &amp; Locksley Ave" BearingToRoad="1.3380357e+002" RoadName="New Brighton Rd">
    <Position Lat="-4.350400584000000e+001" Long="1.726820078000000e+002" />
  </Platform>
  <Platform PlatformTag="298" PlatformNo="39128" Name="New Brighton Rd &amp; Locksley Ave" BearingToRoad="1.0901827e+002" RoadName="New Brighton Rd">
    <Position Lat="-4.350306065000000e+001" Long="1.726826119000000e+002" />
  </Platform>
  <Platform PlatformTag="300" PlatformNo="39536" Name="New Brighton Rd &amp; Lake Terrace Rd" BearingToRoad="1.5222626e+002" RoadName="New Brighton Rd">
    <Position Lat="-4.350017793000000e+001" Long="1.726851577000000e+002" />
  </Platform>
  <Platform PlatformTag="301" PlatformNo="39088" Name="New Brighton Rd" BearingToRoad="3.0616851e+000" RoadName="New Brighton Rd">
    <Position Lat="-4.350016700000000e+001" Long="1.726863420000000e+002" />
  </Platform>
  <Platform PlatformTag="302" PlatformNo="39602" Name="New Brighton Rd" BearingToRoad="3.3856823e+001" RoadName="New Brighton Rd">
    <Position Lat="-4.350110096000000e+001" Long="1.726901459000000e+002" />
  </Platform>
  <Platform PlatformTag="303" PlatformNo="20856" Name="New Brighton Rd" BearingToRoad="2.1385683e+002" RoadName="New Brighton Rd">
    <Position Lat="-4.350063320000000e+001" Long="1.726891457000000e+002" />
  </Platform>
  <Platform PlatformTag="304" PlatformNo="20841" Name="New Brighton Rd &amp; Stour Dr" BearingToRoad="1.7426492e+002" RoadName="New Brighton Rd">
    <Position Lat="-4.350101416000000e+001" Long="1.726934931000000e+002" />
  </Platform>
  <Platform PlatformTag="305" PlatformNo="43996" Name="New Brighton Rd &amp; Stour Dr" BearingToRoad="3.5426492e+002" RoadName="New Brighton Rd">
    <Position Lat="-4.350114542000000e+001" Long="1.726934583000000e+002" />
  </Platform>
  <Platform PlatformTag="306" PlatformNo="20904" Name="New Brighton Rd &amp; Brooker Ave" BearingToRoad="1.7499310e+002" RoadName="New Brighton Rd">
    <Position Lat="-4.350071420000000e+001" Long="1.726968256000000e+002" />
  </Platform>
  <Platform PlatformTag="307" PlatformNo="20839" Name="New Brighton Rd &amp; Waygreen Ave" BearingToRoad="2.0571053e+002" RoadName="New Brighton Rd">
    <Position Lat="-4.350110507000000e+001" Long="1.727037613000000e+002" />
  </Platform>
  <Platform PlatformTag="308" PlatformNo="20684" Name="New Brighton Rd &amp; Waygreen Ave" BearingToRoad="2.4709074e+001" RoadName="New Brighton Rd">
    <Position Lat="-4.350088941000000e+001" Long="1.727027463000000e+002" />
  </Platform>
  <Platform PlatformTag="309" PlatformNo="20716" Name="New Brighton Rd &amp; Wattle Dr" BearingToRoad="3.5124146e+001" RoadName="New Brighton Rd">
    <Position Lat="-4.350194526000000e+001" Long="1.727055877000000e+002" />
  </Platform>
  <Platform PlatformTag="311" PlatformNo="41330" Name="New Brighton Rd &amp; Bower Ave" BearingToRoad="3.6021896e+001" RoadName="New Brighton Rd">
    <Position Lat="-4.350354358000000e+001" Long="1.727086941000000e+002" />
  </Platform>
  <Platform PlatformTag="312" PlatformNo="18120" Name="New Brighton Rd &amp; Bower Ave" BearingToRoad="2.0506001e+002" RoadName="New Brighton Rd">
    <Position Lat="-4.350415710000000e+001" Long="1.727104321000000e+002" />
  </Platform>
  <Platform PlatformTag="313" PlatformNo="18112" Name="New Brighton Rd &amp; Palmers Rd" BearingToRoad="2.1570807e+002" RoadName="New Brighton Rd">
    <Position Lat="-4.350526431000000e+001" Long="1.727135961000000e+002" />
  </Platform>
  <Platform PlatformTag="314" PlatformNo="41311" Name="New Brighton Rd &amp; Palmers Rd" BearingToRoad="2.6297350e+001" RoadName="New Brighton Rd">
    <Position Lat="-4.350504367000000e+001" Long="1.727127250000000e+002" />
  </Platform>
  <Platform PlatformTag="316" PlatformNo="41395" Name="New Brighton Rd &amp; Rawson St" BearingToRoad="3.3910152e+001" RoadName="New Brighton Rd">
    <Position Lat="-4.350661512000000e+001" Long="1.727160379000000e+002" />
  </Platform>
  <Platform PlatformTag="317" PlatformNo="18917" Name="New Brighton Rd &amp; Pratt St" BearingToRoad="2.6389786e+001" RoadName="New Brighton Rd">
    <Position Lat="-4.350767953000000e+001" Long="1.727191368000000e+002" />
  </Platform>
  <Platform PlatformTag="318" PlatformNo="18098" Name="New Brighton Rd &amp; Pratt St" BearingToRoad="2.0638979e+002" RoadName="New Brighton Rd">
    <Position Lat="-4.350811175000000e+001" Long="1.727204896000000e+002" />
  </Platform>
  <Platform PlatformTag="319" PlatformNo="29410" Name="Nirvana St &amp; Harbour Rd" BearingToRoad="2.6644797e+002" RoadName="Nirvana St">
    <Position Lat="-4.339964810000000e+001" Long="1.727011087000000e+002" />
  </Platform>
  <Platform PlatformTag="320" PlatformNo="12010" Name="N Avon Rd &amp; Petrie St" BearingToRoad="1.8099066e+002" RoadName="North Avon Rd">
    <Position Lat="-4.351750749000000e+001" Long="1.726570124000000e+002" />
  </Platform>
  <Platform PlatformTag="321" PlatformNo="18578" Name="Chrystal St, N Avon Rd &amp; Tweed St" BearingToRoad="1.0782950e+000" RoadName="North Avon Rd">
    <Position Lat="-4.351766281000000e+001" Long="1.726580680000000e+002" />
  </Platform>
  <Platform PlatformTag="322" PlatformNo="13323" Name="Chrystal St, N Avon Rd &amp; Tweed St" BearingToRoad="1.8107829e+002" RoadName="North Avon Rd">
    <Position Lat="-4.351752040000000e+001" Long="1.726584151000000e+002" />
  </Platform>
  <Platform PlatformTag="323" PlatformNo="18300" Name="North Pde &amp; Randall St" BearingToRoad="2.7079266e+002" RoadName="North Pde">
    <Position Lat="-4.351558393000000e+001" Long="1.726599593000000e+002" />
  </Platform>
  <Platform PlatformTag="324" PlatformNo="13310" Name="North Pde &amp; Medway St" BearingToRoad="1.1343134e+002" RoadName="North Pde">
    <Position Lat="-4.351490998000000e+001" Long="1.726598884000000e+002" />
  </Platform>
  <Platform PlatformTag="325" PlatformNo="40038" Name="North Pde &amp; Poulton Ave" BearingToRoad="2.7109570e+002" RoadName="North Pde">
    <Position Lat="-4.351360865000000e+001" Long="1.726606348000000e+002" />
  </Platform>
  <Platform PlatformTag="326" PlatformNo="40296" Name="North Pde &amp; Averill St" BearingToRoad="3.0222662e+002" RoadName="North Pde">
    <Position Lat="-4.351205749000000e+001" Long="1.726615206000000e+002" />
  </Platform>
  <Platform PlatformTag="327" PlatformNo="13277" Name="North Parade" BearingToRoad="8.7139465e+001" RoadName="North Pde">
    <Position Lat="-4.350875878000000e+001" Long="1.726628201000000e+002" />
  </Platform>
  <Platform PlatformTag="328" PlatformNo="40709" Name="Northcote Rd &amp; Fenchurch St" BearingToRoad="1.8459111e+002" RoadName="Northcote Rd">
    <Position Lat="-4.348433311000000e+001" Long="1.726137379000000e+002" />
  </Platform>
  <Platform PlatformTag="329" PlatformNo="19629" Name="Northcote Rd &amp; Lydia St" BearingToRoad="4.6231232e+000" RoadName="Northcote Rd">
    <Position Lat="-4.348437314000000e+001" Long="1.726118288000000e+002" />
  </Platform>
  <Platform PlatformTag="330" PlatformNo="19664" Name="Northcote Rd &amp; Uxbridge St" BearingToRoad="4.5333099e+000" RoadName="Northcote Rd">
    <Position Lat="-4.348423199000000e+001" Long="1.726085491000000e+002" />
  </Platform>
  <Platform PlatformTag="331" PlatformNo="17403" Name="Northcote Rd &amp; Uxbridge St" BearingToRoad="1.8453331e+002" RoadName="Northcote Rd">
    <Position Lat="-4.348411158000000e+001" Long="1.726085918000000e+002" />
  </Platform>
  <Platform PlatformTag="332" PlatformNo="18242" Name="New Brighton" BearingToRoad="2.5521730e+002" RoadName="Oram Ave">
    <Position Lat="-4.350822802000000e+001" Long="1.727299368000000e+002" />
  </Platform>
  <Platform PlatformTag="333" PlatformNo="26471" Name="Oram Ave &amp; Hood St" BearingToRoad="2.5525749e+002" RoadName="Oram Ave">
    <Position Lat="-4.351056705000000e+001" Long="1.727308445000000e+002" />
  </Platform>
  <Platform PlatformTag="334" PlatformNo="26056" Name="Oram Ave &amp; Rodney St" BearingToRoad="2.5525749e+002" RoadName="Oram Ave">
    <Position Lat="-4.351334849000000e+001" Long="1.727319273000000e+002" />
  </Platform>
  <Platform PlatformTag="335" PlatformNo="39192" Name="New Brighton" BearingToRoad="7.5233322e+001" RoadName="Oram Ave">
    <Position Lat="-4.350808639000000e+001" Long="1.727296087000000e+002" />
  </Platform>
  <Platform PlatformTag="336" PlatformNo="26705" Name="Oram Ave &amp; Hood St" BearingToRoad="7.5253258e+001" RoadName="Oram Ave">
    <Position Lat="-4.351050068000000e+001" Long="1.727305248000000e+002" />
  </Platform>
  <Platform PlatformTag="337" PlatformNo="26574" Name="Oram Ave &amp; Rodney St" BearingToRoad="7.5253258e+001" RoadName="Oram Ave">
    <Position Lat="-4.351315582000000e+001" Long="1.727315609000000e+002" />
  </Platform>
  <Platform PlatformTag="338" PlatformNo="46789" Name="Pages Rd &amp; Woodham Rd" BearingToRoad="1.3790276e+002" RoadName="Pages Rd">
    <Position Lat="-4.352562489000000e+001" Long="1.726834872000000e+002" />
  </Platform>
  <Platform PlatformTag="339" PlatformNo="46801" Name="Pages Rd &amp; Kearneys Rd" BearingToRoad="1.7154469e+002" RoadName="Pages Rd">
    <Position Lat="-4.352354663000000e+001" Long="1.726880446000000e+002" />
  </Platform>
  <Platform PlatformTag="340" PlatformNo="40334" Name="Pages Rd &amp; Buckleys Rd" BearingToRoad="3.1809650e+002" RoadName="Pages Rd">
    <Position Lat="-4.352583908000000e+001" Long="1.726836151000000e+002" />
  </Platform>
  <Platform PlatformTag="341" PlatformNo="40352" Name="Pages Rd &amp; Kearneys Rd" BearingToRoad="3.5689783e+002" RoadName="Pages Rd">
    <Position Lat="-4.352376644000000e+001" Long="1.726881051000000e+002" />
  </Platform>
  <Platform PlatformTag="344" PlatformNo="40306" Name="Pages Rd &amp; Ottawa Rd" BearingToRoad="3.3673123e+002" RoadName="Pages Rd">
    <Position Lat="-4.352227366000000e+001" Long="1.726926163000000e+002" />
  </Platform>
  <Platform PlatformTag="345" PlatformNo="46552" Name="Pages Rd &amp; Ottawa Rd" BearingToRoad="1.5669830e+002" RoadName="Pages Rd">
    <Position Lat="-4.352185349000000e+001" Long="1.726934331000000e+002" />
  </Platform>
  <Platform PlatformTag="347" PlatformNo="15480" Name="Pages Rd &amp; Shortland St" BearingToRoad="3.2127979e+002" RoadName="Pages Rd">
    <Position Lat="-4.351995933000000e+001" Long="1.726975497000000e+002" />
  </Platform>
  <Platform PlatformTag="348" PlatformNo="26459" Name="Pages Rd &amp; Shortland St" BearingToRoad="1.4042683e+002" RoadName="Pages Rd">
    <Position Lat="-4.351897381000000e+001" Long="1.726988226000000e+002" />
  </Platform>
  <Platform PlatformTag="349" PlatformNo="15479" Name="Pages Rd &amp; Breezes Rd" BearingToRoad="3.2025150e+002" RoadName="Pages Rd">
    <Position Lat="-4.351779805000000e+001" Long="1.727010293000000e+002" />
  </Platform>
  <Platform PlatformTag="350" PlatformNo="40399" Name="Pages Rd &amp; Breezes Rd" BearingToRoad="1.5162498e+002" RoadName="Pages Rd">
    <Position Lat="-4.351691138000000e+001" Long="1.727024236000000e+002" />
  </Platform>
  <Platform PlatformTag="351" PlatformNo="26947" Name="Pages Rd &amp; Knightsbridge Ln" BearingToRoad="1.5162392e+002" RoadName="Pages Rd">
    <Position Lat="-4.351587159000000e+001" Long="1.727049384000000e+002" />
  </Platform>
  <Platform PlatformTag="352" PlatformNo="26831" Name="Pages Rd &amp; Rowan Ave" BearingToRoad="3.3121344e+002" RoadName="Pages Rd">
    <Position Lat="-4.351482443000000e+001" Long="1.727078098000000e+002" />
  </Platform>
  <Platform PlatformTag="353" PlatformNo="26934" Name="Pages Rd &amp; Rowan Ave" BearingToRoad="1.5121342e+002" RoadName="Pages Rd">
    <Position Lat="-4.351469898000000e+001" Long="1.727077902000000e+002" />
  </Platform>
  <Platform PlatformTag="354" PlatformNo="26849" Name="Pages Rd &amp; Portchester St" BearingToRoad="3.3159558e+002" RoadName="Pages Rd">
    <Position Lat="-4.351392830000000e+001" Long="1.727099778000000e+002" />
  </Platform>
  <Platform PlatformTag="355" PlatformNo="47074" Name="Pages Rd &amp; Portchester St" BearingToRoad="1.5139291e+002" RoadName="Pages Rd">
    <Position Lat="-4.351349228000000e+001" Long="1.727107022000000e+002" />
  </Platform>
  <Platform PlatformTag="356" PlatformNo="26638" Name="Pages Rd &amp; Farnborough St" BearingToRoad="1.5140259e+002" RoadName="Pages Rd">
    <Position Lat="-4.351216539000000e+001" Long="1.727139062000000e+002" />
  </Platform>
  <Platform PlatformTag="357" PlatformNo="15684" Name="Pages Rd &amp; Charles Gallagher Pl" BearingToRoad="3.3140259e+002" RoadName="Pages Rd">
    <Position Lat="-4.351239213000000e+001" Long="1.727136862000000e+002" />
  </Platform>
  <Platform PlatformTag="358" PlatformNo="15678" Name="Pages Rd" BearingToRoad="3.3141428e+002" RoadName="Pages Rd">
    <Position Lat="-4.351104697000000e+001" Long="1.727171328000000e+002" />
  </Platform>
  <Platform PlatformTag="360" PlatformNo="40368" Name="Pages Rd &amp; Waitaki St" BearingToRoad="3.3163629e+002" RoadName="Pages Rd">
    <Position Lat="-4.351019789000000e+001" Long="1.727190142000000e+002" />
  </Platform>
  <Platform PlatformTag="361" PlatformNo="21292" Name="Palmers Rd &amp; Bowhill Rd" BearingToRoad="9.4117859e+001" RoadName="Palmers Rd">
    <Position Lat="-4.349897546000000e+001" Long="1.727136258000000e+002" />
  </Platform>
  <Platform PlatformTag="362" PlatformNo="21466" Name="Palmers Rd &amp; Bowhill Rd" BearingToRoad="2.7411786e+002" RoadName="Palmers Rd">
    <Position Lat="-4.349901090000000e+001" Long="1.727137931000000e+002" />
  </Platform>
  <Platform PlatformTag="363" PlatformNo="21285" Name="Palmers Rd &amp; Caithness St" BearingToRoad="9.4093575e+001" RoadName="Palmers Rd">
    <Position Lat="-4.350240881000000e+001" Long="1.727133831000000e+002" />
  </Platform>
  <Platform PlatformTag="364" PlatformNo="21478" Name="Palmers Rd &amp; Caithness St" BearingToRoad="2.7409357e+002" RoadName="Palmers Rd">
    <Position Lat="-4.350254994000000e+001" Long="1.727135418000000e+002" />
  </Platform>
  <Platform PlatformTag="365" PlatformNo="21387" Name="Palmers Rd &amp; Reg Stillwell Pl" BearingToRoad="9.4096794e+001" RoadName="Palmers Rd">
    <Position Lat="-4.350450004000000e+001" Long="1.727132286000000e+002" />
  </Platform>
  <Platform PlatformTag="366" PlatformNo="21325" Name="Palmers Rd &amp; Reg Stillwell Pl" BearingToRoad="2.7408405e+002" RoadName="Palmers Rd">
    <Position Lat="-4.350457832000000e+001" Long="1.727133966000000e+002" />
  </Platform>
  <Platform PlatformTag="371" PlatformNo="13489" Name="Papanui Rd &amp; Grants Rd" BearingToRoad="5.7281204e+001" RoadName="Papanui Rd">
    <Position Lat="-4.349990400000000e+001" Long="1.726104070000000e+002" />
  </Platform>
  <Platform PlatformTag="373" PlatformNo="13491" Name="Papanui Shops" BearingToRoad="5.7392422e+001" RoadName="Papanui Rd">
    <Position Lat="-4.349840988000000e+001" Long="1.726090279000000e+002" />
  </Platform>
  <Platform PlatformTag="374" PlatformNo="15405" Name="Papanui Rd &amp; Wyndham St" BearingToRoad="2.3742819e+002" RoadName="Papanui Rd">
    <Position Lat="-4.349827325000000e+001" Long="1.726091129000000e+002" />
  </Platform>
  <Platform PlatformTag="375" PlatformNo="36702" Name="Philpotts Rd &amp; Knowles St" BearingToRoad="2.3768599e+002" RoadName="Philpotts Rd">
    <Position Lat="-4.349840200000000e+001" Long="1.726399074000000e+002" />
  </Platform>
  <Platform PlatformTag="376" PlatformNo="37914" Name="Philpotts Rd &amp; Knowles St" BearingToRoad="5.7685986e+001" RoadName="Philpotts Rd">
    <Position Lat="-4.349837013000000e+001" Long="1.726397244000000e+002" />
  </Platform>
  <Platform PlatformTag="377" PlatformNo="37979" Name="Philpotts Rd &amp; Fortune St" BearingToRoad="5.7205723e+001" RoadName="Philpotts Rd">
    <Position Lat="-4.349625683000000e+001" Long="1.726378938000000e+002" />
  </Platform>
  <Platform PlatformTag="378" PlatformNo="36699" Name="Philpotts Rd &amp; Glenfield Cres" BearingToRoad="2.3723009e+002" RoadName="Philpotts Rd">
    <Position Lat="-4.349602393000000e+001" Long="1.726378191000000e+002" />
  </Platform>
  <Platform PlatformTag="379" PlatformNo="37922" Name="Philpotts Rd &amp; Glenfield Cres" BearingToRoad="9.2816246e+001" RoadName="Philpotts Rd">
    <Position Lat="-4.349357577000000e+001" Long="1.726356526000000e+002" />
  </Platform>
  <Platform PlatformTag="380" PlatformNo="36681" Name="Philpotts Rd &amp; Glenfield Cres" BearingToRoad="2.7281625e+002" RoadName="Philpotts Rd">
    <Position Lat="-4.349326098000000e+001" Long="1.726358046000000e+002" />
  </Platform>
  <Platform PlatformTag="381" PlatformNo="42009" Name="Port Hills Rd &amp; Martindales Rd" BearingToRoad="2.2519795e+002" RoadName="Port Hills Rd">
    <Position Lat="-4.357574222000000e+001" Long="1.727032571000000e+002" />
  </Platform>
  <Platform PlatformTag="382" PlatformNo="42176" Name="Port Hills Rd &amp; Stedley Pl" BearingToRoad="4.5197948e+001" RoadName="Port Hills Rd">
    <Position Lat="-4.357573336000000e+001" Long="1.727030533000000e+002" />
  </Platform>
  <Platform PlatformTag="383" PlatformNo="42045" Name="Port Hills Rd &amp; Ardtrea Ln" BearingToRoad="2.1090549e+002" RoadName="Port Hills Rd">
    <Position Lat="-4.357389321000000e+001" Long="1.727005976000000e+002" />
  </Platform>
  <Platform PlatformTag="384" PlatformNo="42195" Name="Port Hills Rd &amp; Ardtrea Ln" BearingToRoad="3.0905479e+001" RoadName="Port Hills Rd">
    <Position Lat="-4.357368265000000e+001" Long="1.726998334000000e+002" />
  </Platform>
  <Platform PlatformTag="385" PlatformNo="42084" Name="Port Hills Rd &amp; Mauger Dr" BearingToRoad="2.0386615e+002" RoadName="Port Hills Rd">
    <Position Lat="-4.357301591000000e+001" Long="1.726979712000000e+002" />
  </Platform>
  <Platform PlatformTag="386" PlatformNo="42148" Name="Port Hills Rd &amp; Castleview Ln" BearingToRoad="4.6439972e+000" RoadName="Port Hills Rd">
    <Position Lat="-4.357300041000000e+001" Long="1.726969315000000e+002" />
  </Platform>
  <Platform PlatformTag="387" PlatformNo="42169" Name="Port Hills Rd &amp; Horotane Valley Rd" BearingToRoad="5.2841057e+001" RoadName="Port Hills Rd">
    <Position Lat="-4.357218900000000e+001" Long="1.726947150000000e+002" />
  </Platform>
  <Platform PlatformTag="388" PlatformNo="42066" Name="Port Hills Rd &amp; Horotane Valley Rd" BearingToRoad="2.3284105e+002" RoadName="Port Hills Rd">
    <Position Lat="-4.357195099000000e+001" Long="1.726946304000000e+002" />
  </Platform>
  <Platform PlatformTag="389" PlatformNo="15697" Name="Portchester St &amp; Corhampton St" BearingToRoad="5.4510899e+001" RoadName="Portchester St">
    <Position Lat="-4.351259596000000e+001" Long="1.727093569000000e+002" />
  </Platform>
  <Platform PlatformTag="390" PlatformNo="26767" Name="Portchester St &amp; Mattingley St" BearingToRoad="2.3805888e+002" RoadName="Portchester St">
    <Position Lat="-4.351269300000000e+001" Long="1.727095890000000e+002" />
  </Platform>
  <Platform PlatformTag="394" PlatformNo="20737" Name="Queenspark Dr &amp; Bower Ave" BearingToRoad="1.8000529e+002" RoadName="Queenspark Dr">
    <Position Lat="-4.348219323000000e+001" Long="1.727112594000000e+002" />
  </Platform>
  <Platform PlatformTag="395" PlatformNo="20818" Name="Queenspark Dr &amp; Bower Ave" BearingToRoad="5.2880002e-003" RoadName="Queenspark Dr">
    <Position Lat="-4.348230793000000e+001" Long="1.727110135000000e+002" />
  </Platform>
  <Platform PlatformTag="396" PlatformNo="20217" Name="Queenspark Dr &amp; Lamorna Rd" BearingToRoad="1.8516466e+002" RoadName="Queenspark Dr">
    <Position Lat="-4.348222688000000e+001" Long="1.727078499000000e+002" />
  </Platform>
  <Platform PlatformTag="397" PlatformNo="20802" Name="Queenspark Dr &amp; Donnington St" BearingToRoad="1.0991148e+001" RoadName="Queenspark Dr">
    <Position Lat="-4.348233584000000e+001" Long="1.727076358000000e+002" />
  </Platform>
  <Platform PlatformTag="398" PlatformNo="20199" Name="Queenspark Dr &amp; Chadbury St" BearingToRoad="2.0898158e+002" RoadName="Queenspark Dr">
    <Position Lat="-4.348145372000000e+001" Long="1.727053320000000e+002" />
  </Platform>
  <Platform PlatformTag="399" PlatformNo="20785" Name="Queenspark Dr &amp; Chadbury St" BearingToRoad="2.8981581e+001" RoadName="Queenspark Dr">
    <Position Lat="-4.348150112000000e+001" Long="1.727051113000000e+002" />
  </Platform>
  <Platform PlatformTag="400" PlatformNo="20303" Name="Queenspark Dr &amp; Inwoods Rd" BearingToRoad="2.8691700e+001" RoadName="Queenspark Dr">
    <Position Lat="-4.347984863000000e+001" Long="1.727008432000000e+002" />
  </Platform>
  <Platform PlatformTag="401" PlatformNo="20255" Name="Queenspark Dr &amp; Inwoods Rd" BearingToRoad="2.0869170e+002" RoadName="Queenspark Dr">
    <Position Lat="-4.347974631000000e+001" Long="1.727009068000000e+002" />
  </Platform>
  <Platform PlatformTag="402" PlatformNo="20238" Name="Queenspark Dr &amp; Branksome Pl" BearingToRoad="2.0330925e+002" RoadName="Queenspark Dr">
    <Position Lat="-4.347884553000000e+001" Long="1.726980435000000e+002" />
  </Platform>
  <Platform PlatformTag="403" PlatformNo="20272" Name="Queenspark Dr &amp; Branksome Pl" BearingToRoad="2.7538294e+001" RoadName="Queenspark Dr">
    <Position Lat="-4.347873181000000e+001" Long="1.726973228000000e+002" />
  </Platform>
  <Platform PlatformTag="404" PlatformNo="20229" Name="Queenspark Dr &amp; Brentwood St" BearingToRoad="2.3535988e+002" RoadName="Queenspark Dr">
    <Position Lat="-4.347784508000000e+001" Long="1.726957891000000e+002" />
  </Platform>
  <Platform PlatformTag="405" PlatformNo="20286" Name="Queenspark Dr &amp; Brentwood St" BearingToRoad="7.6223381e+001" RoadName="Queenspark Dr">
    <Position Lat="-4.347720322000000e+001" Long="1.726951822000000e+002" />
  </Platform>
  <Platform PlatformTag="406" PlatformNo="20240" Name="Queenspark Dr &amp; Chadlington St" BearingToRoad="2.6335468e+002" RoadName="Queenspark Dr">
    <Position Lat="-4.347536567000000e+001" Long="1.726949694000000e+002" />
  </Platform>
  <Platform PlatformTag="407" PlatformNo="20498" Name="Queenspark Dr &amp; Chadlington St" BearingToRoad="8.3354683e+001" RoadName="Queenspark Dr">
    <Position Lat="-4.347511619000000e+001" Long="1.726947567000000e+002" />
  </Platform>
  <Platform PlatformTag="409" PlatformNo="20390" Name="Queenspark Dr &amp; Broadhaven Ave" BearingToRoad="1.1779902e+002" RoadName="Queenspark Dr">
    <Position Lat="-4.347316863000000e+001" Long="1.726956067000000e+002" />
  </Platform>
  <Platform PlatformTag="410" PlatformNo="24439" Name="Quinns Rd &amp; Hercules St" BearingToRoad="8.6732422e+001" RoadName="Quinns Rd">
    <Position Lat="-4.350559056000000e+001" Long="1.726580042000000e+002" />
  </Platform>
  <Platform PlatformTag="411" PlatformNo="23862" Name="Radley St &amp; Cumnor Tce" BearingToRoad="3.1169699e+002" RoadName="Radley St">
    <Position Lat="-4.354819901000000e+001" Long="1.726781439000000e+002" />
  </Platform>
  <Platform PlatformTag="412" PlatformNo="23242" Name="Radley St &amp; Cumnor Tce" BearingToRoad="1.3169699e+002" RoadName="Radley St">
    <Position Lat="-4.354813914000000e+001" Long="1.726780190000000e+002" />
  </Platform>
  <Platform PlatformTag="413" PlatformNo="23870" Name="Radley St &amp; Tavender St" BearingToRoad="3.1158542e+002" RoadName="Radley St">
    <Position Lat="-4.355026695000000e+001" Long="1.726757223000000e+002" />
  </Platform>
  <Platform PlatformTag="414" PlatformNo="23482" Name="Radley St &amp; Tavender St" BearingToRoad="1.3158542e+002" RoadName="Radley St">
    <Position Lat="-4.355025288000000e+001" Long="1.726755426000000e+002" />
  </Platform>
  <Platform PlatformTag="415" PlatformNo="23827" Name="Radley St &amp; Sheldon St" BearingToRoad="2.8021002e+002" RoadName="Radley St">
    <Position Lat="-4.355238479000000e+001" Long="1.726741390000000e+002" />
  </Platform>
  <Platform PlatformTag="416" PlatformNo="23453" Name="Radley St &amp; Chichester St" BearingToRoad="1.0021001e+002" RoadName="Radley St">
    <Position Lat="-4.355236679000000e+001" Long="1.726739898000000e+002" />
  </Platform>
  <Platform PlatformTag="417" PlatformNo="32341" Name="Rayburn Ave &amp; Perry St" BearingToRoad="2.3720343e+002" RoadName="Rayburn Ave">
    <Position Lat="-4.350059400000000e+001" Long="1.726153993000000e+002" />
  </Platform>
  <Platform PlatformTag="418" PlatformNo="25246" Name="Rayburn Ave &amp; Perry St" BearingToRoad="5.7203426e+001" RoadName="Rayburn Ave">
    <Position Lat="-4.350054572000000e+001" Long="1.726152285000000e+002" />
  </Platform>
  <Platform PlatformTag="419" PlatformNo="26307" Name="Rocking Horse Rd &amp; Godwit St" BearingToRoad="7.1068924e+001" RoadName="Rocking Horse Rd">
    <Position Lat="-4.354005068000000e+001" Long="1.727429396000000e+002" />
  </Platform>
  <Platform PlatformTag="420" PlatformNo="26324" Name="Rocking Horse Rd &amp; Godwit St" BearingToRoad="2.5107846e+002" RoadName="Rocking Horse Rd">
    <Position Lat="-4.354050594000000e+001" Long="1.727433152000000e+002" />
  </Platform>
  <Platform PlatformTag="421" PlatformNo="43117" Name="Rocking Horse Rd &amp; Heron St" BearingToRoad="8.1541466e+001" RoadName="Rocking Horse Rd">
    <Position Lat="-4.354209444000000e+001" Long="1.727438557000000e+002" />
  </Platform>
  <Platform PlatformTag="422" PlatformNo="26330" Name="Rocking Horse Rd &amp; Heron St" BearingToRoad="2.6144156e+002" RoadName="Rocking Horse Rd">
    <Position Lat="-4.354282361000000e+001" Long="1.727441718000000e+002" />
  </Platform>
  <Platform PlatformTag="423" PlatformNo="44131" Name="Rocking Horse Rd &amp; Penguin St" BearingToRoad="7.1034737e+001" RoadName="Rocking Horse Rd">
    <Position Lat="-4.354560503000000e+001" Long="1.727451875000000e+002" />
  </Platform>
  <Platform PlatformTag="424" PlatformNo="26245" Name="Rocking Horse Rd &amp; Penguin St" BearingToRoad="2.5103474e+002" RoadName="Rocking Horse Rd">
    <Position Lat="-4.354562941000000e+001" Long="1.727453536000000e+002" />
  </Platform>
  <Platform PlatformTag="425" PlatformNo="46990" Name="Rocking Horse Rd &amp; Plover St" BearingToRoad="7.1023010e+001" RoadName="Rocking Horse Rd">
    <Position Lat="-4.354831989000000e+001" Long="1.727465609000000e+002" />
  </Platform>
  <Platform PlatformTag="426" PlatformNo="26250" Name="Rocking Horse Rd &amp; Plover St" BearingToRoad="2.5102301e+002" RoadName="Rocking Horse Rd">
    <Position Lat="-4.354851394000000e+001" Long="1.727468144000000e+002" />
  </Platform>
  <Platform PlatformTag="427" PlatformNo="26162" Name="Rocking Horse Rd &amp; Tern St" BearingToRoad="2.5102884e+002" RoadName="Rocking Horse Rd">
    <Position Lat="-4.355099839000000e+001" Long="1.727480682000000e+002" />
  </Platform>
  <Platform PlatformTag="428" PlatformNo="26284" Name="Rocking Horse Rd &amp; Tern St" BearingToRoad="7.1028847e+001" RoadName="Rocking Horse Rd">
    <Position Lat="-4.355143134000000e+001" Long="1.727481328000000e+002" />
  </Platform>
  <Platform PlatformTag="429" PlatformNo="26297" Name="Rocking Horse Rd &amp; Torea Ln" BearingToRoad="7.5143005e+001" RoadName="Rocking Horse Rd">
    <Position Lat="-4.355369432000000e+001" Long="1.727490987000000e+002" />
  </Platform>
  <Platform PlatformTag="430" PlatformNo="26136" Name="Rocking Horse Rd &amp; Whimbrels Wy" BearingToRoad="2.5514301e+002" RoadName="Rocking Horse Rd">
    <Position Lat="-4.355414353000000e+001" Long="1.727494278000000e+002" />
  </Platform>
  <Platform PlatformTag="431" PlatformNo="26209" Name="Rocking Horse Rd &amp; Petrel Ln" BearingToRoad="7.5229172e+001" RoadName="Rocking Horse Rd">
    <Position Lat="-4.355491691000000e+001" Long="1.727495841000000e+002" />
  </Platform>
  <Platform PlatformTag="432" PlatformNo="26213" Name="Southshore" BearingToRoad="2.5507350e+002" RoadName="Rocking Horse Rd">
    <Position Lat="-4.355644706000000e+001" Long="1.727503419000000e+002" />
  </Platform>
  <Platform PlatformTag="433" PlatformNo="32198" Name="Rodney St &amp; Union St" BearingToRoad="3.4295477e+002" RoadName="Rodney St">
    <Position Lat="-4.351397351000000e+001" Long="1.727300423000000e+002" />
  </Platform>
  <Platform PlatformTag="434" PlatformNo="39562" Name="Rookwood Ave &amp; Marriotts Rd" BearingToRoad="3.9232620e+001" RoadName="Rookwood Ave">
    <Position Lat="-4.349638501000000e+001" Long="1.727147197000000e+002" />
  </Platform>
  <Platform PlatformTag="435" PlatformNo="39354" Name="Rookwood Ave &amp; Marriotts Rd" BearingToRoad="2.1923262e+002" RoadName="Rookwood Ave">
    <Position Lat="-4.349592697000000e+001" Long="1.727141955000000e+002" />
  </Platform>
  <Platform PlatformTag="436" PlatformNo="39455" Name="Rookwood Ave" BearingToRoad="7.8233871e+000" RoadName="Rookwood Ave">
    <Position Lat="-4.349533628000000e+001" Long="1.727119494000000e+002" />
  </Platform>
  <Platform PlatformTag="437" PlatformNo="26104" Name="Rowan Ave &amp; Yarmouth St" BearingToRoad="2.2901785e+002" RoadName="Rowan Ave">
    <Position Lat="-4.351127575000000e+001" Long="1.727040040000000e+002" />
  </Platform>
  <Platform PlatformTag="438" PlatformNo="15446" Name="Rowan Ave &amp; Yarmouth St" BearingToRoad="4.8662849e+001" RoadName="Rowan Ave">
    <Position Lat="-4.351205654000000e+001" Long="1.727047929000000e+002" />
  </Platform>
  <Platform PlatformTag="439" PlatformNo="23316" Name="Rutherford St &amp; Woolston Ct" BearingToRoad="3.0745779e+002" RoadName="Rutherford St">
    <Position Lat="-4.355217729000000e+001" Long="1.726866559000000e+002" />
  </Platform>
  <Platform PlatformTag="440" PlatformNo="23344" Name="Rutherford St &amp; Woolston Ct" BearingToRoad="1.2756494e+002" RoadName="Rutherford St">
    <Position Lat="-4.355230984000000e+001" Long="1.726863184000000e+002" />
  </Platform>
  <Platform PlatformTag="441" PlatformNo="23300" Name="Rutherford St &amp; Barton St" BearingToRoad="3.0745956e+002" RoadName="Rutherford St">
    <Position Lat="-4.355531030000000e+001" Long="1.726835056000000e+002" />
  </Platform>
  <Platform PlatformTag="442" PlatformNo="23385" Name="Rutherford St &amp; Barton St" BearingToRoad="1.2745956e+002" RoadName="Rutherford St">
    <Position Lat="-4.355519603000000e+001" Long="1.726834037000000e+002" />
  </Platform>
  <Platform PlatformTag="443" PlatformNo="25279" Name="Rutland St &amp; Hawkesbury Ave" BearingToRoad="2.3762483e+002" RoadName="Rutland St">
    <Position Lat="-4.350587414000000e+001" Long="1.726283498000000e+002" />
  </Platform>
  <Platform PlatformTag="444" PlatformNo="25396" Name="Rutland St &amp; Hawkesbury Ave" BearingToRoad="5.7624828e+001" RoadName="Rutland St">
    <Position Lat="-4.350574649000000e+001" Long="1.726280604000000e+002" />
  </Platform>
  <Platform PlatformTag="445" PlatformNo="32445" Name="Mays Road" BearingToRoad="2.3748914e+002" RoadName="Rutland St">
    <Position Lat="-4.350173819000000e+001" Long="1.726244177000000e+002" />
  </Platform>
  <Platform PlatformTag="446" PlatformNo="25354" Name="Mays Road" BearingToRoad="5.7489128e+001" RoadName="Rutland St">
    <Position Lat="-4.350180434000000e+001" Long="1.726242568000000e+002" />
  </Platform>
  <Platform PlatformTag="447" PlatformNo="16888" Name="Sawyers Arms Rd &amp; Leander St" BearingToRoad="2.1642847e+002" RoadName="Sawyers Arms Rd">
    <Position Lat="-4.348968729000000e+001" Long="1.726100883000000e+002" />
  </Platform>
  <Platform PlatformTag="448" PlatformNo="16410" Name="Sawyers Arms Rd &amp; Leander St" BearingToRoad="3.6428471e+001" RoadName="Sawyers Arms Rd">
    <Position Lat="-4.348969822000000e+001" Long="1.726098163000000e+002" />
  </Platform>
  <Platform PlatformTag="449" PlatformNo="16740" Name="Sawyers Arms Rd &amp; Nyoli St" BearingToRoad="2.1639284e+002" RoadName="Sawyers Arms Rd">
    <Position Lat="-4.348860398000000e+001" Long="1.726079895000000e+002" />
  </Platform>
  <Platform PlatformTag="450" PlatformNo="16434" Name="Sawyers Arms Rd &amp; Nyoli St" BearingToRoad="3.6392830e+001" RoadName="Sawyers Arms Rd">
    <Position Lat="-4.348865935000000e+001" Long="1.726078074000000e+002" />
  </Platform>
  <Platform PlatformTag="451" PlatformNo="16717" Name="Sawyers Arms Rd &amp; Lacebark Ln" BearingToRoad="2.2060777e+002" RoadName="Sawyers Arms Rd">
    <Position Lat="-4.348731002000000e+001" Long="1.726055360000000e+002" />
  </Platform>
  <Platform PlatformTag="452" PlatformNo="16861" Name="Sawyers Arms Rd &amp; Lacebark Ln" BearingToRoad="4.0607773e+001" RoadName="Sawyers Arms Rd">
    <Position Lat="-4.348714385000000e+001" Long="1.726050046000000e+002" />
  </Platform>
  <Platform PlatformTag="453" PlatformNo="16701" Name="Sawyers Arms Rd &amp; La Perouse Pl" BearingToRoad="2.1095891e+002" RoadName="Sawyers Arms Rd">
    <Position Lat="-4.348524525000000e+001" Long="1.726021312000000e+002" />
  </Platform>
  <Platform PlatformTag="454" PlatformNo="16842" Name="Sawyers Arms Rd &amp; La Perouse Pl" BearingToRoad="3.0958904e+001" RoadName="Sawyers Arms Rd">
    <Position Lat="-4.348532262000000e+001" Long="1.726020329000000e+002" />
  </Platform>
  <Platform PlatformTag="455" PlatformNo="16826" Name="Sawyers Arms Rd &amp; Greers Rd" BearingToRoad="3.0583065e+001" RoadName="Sawyers Arms Rd">
    <Position Lat="-4.348398632000000e+001" Long="1.725988184000000e+002" />
  </Platform>
  <Platform PlatformTag="456" PlatformNo="16698" Name="Sawyers Arms Rd &amp; Reynolds Ave" BearingToRoad="2.1058307e+002" RoadName="Sawyers Arms Rd">
    <Position Lat="-4.348369481000000e+001" Long="1.725984285000000e+002" />
  </Platform>
  <Platform PlatformTag="457" PlatformNo="16738" Name="Sawyers Arms Rd" BearingToRoad="3.0620808e+001" RoadName="Sawyers Arms Rd">
    <Position Lat="-4.348134325000000e+001" Long="1.725924161000000e+002" />
  </Platform>
  <Platform PlatformTag="458" PlatformNo="16679" Name="Sawyers Arms Rd &amp; Cotswold Ave" BearingToRoad="2.1042583e+002" RoadName="Sawyers Arms Rd">
    <Position Lat="-4.348001013000000e+001" Long="1.725895319000000e+002" />
  </Platform>
  <Platform PlatformTag="459" PlatformNo="16786" Name="Sawyers Arms Rd &amp; Cotswold Ave" BearingToRoad="3.0425833e+001" RoadName="Sawyers Arms Rd">
    <Position Lat="-4.347976763000000e+001" Long="1.725886255000000e+002" />
  </Platform>
  <Platform PlatformTag="460" PlatformNo="18149" Name="Seaview Rd" BearingToRoad="1.6311057e+002" RoadName="Seaview Rd">
    <Position Lat="-4.350870178000000e+001" Long="1.727231236000000e+002" />
  </Platform>
  <Platform PlatformTag="461" PlatformNo="18901" Name="Seaview Rd" BearingToRoad="3.4311057e+002" RoadName="Seaview Rd">
    <Position Lat="-4.350886795000000e+001" Long="1.727229069000000e+002" />
  </Platform>
  <Platform PlatformTag="462" PlatformNo="39625" Name="Shirley Rd &amp; Slater St" BearingToRoad="1.8102896e+002" RoadName="Shirley Rd">
    <Position Lat="-4.350803298000000e+001" Long="1.726531483000000e+002" />
  </Platform>
  <Platform PlatformTag="463" PlatformNo="39710" Name="Shirley Rd &amp; Slater St" BearingToRoad="7.5250202e-001" RoadName="Shirley Rd">
    <Position Lat="-4.350814750000000e+001" Long="1.726532310000000e+002" />
  </Platform>
  <Platform PlatformTag="465" PlatformNo="38420" Name="Shirley Rd &amp; Stapletons Rd" BearingToRoad="1.8069705e+002" RoadName="Shirley Rd">
    <Position Lat="-4.350802243000000e+001" Long="1.726564799000000e+002" />
  </Platform>
  <Platform PlatformTag="466" PlatformNo="39515" Name="Shirley Rd &amp; Quinns Rd" BearingToRoad="1.8071312e+002" RoadName="Shirley Rd">
    <Position Lat="-4.350798885000000e+001" Long="1.726590897000000e+002" />
  </Platform>
  <Platform PlatformTag="467" Name="Shirley Rd &amp; Quinns Rd" BearingToRoad="6.2895459e-001" RoadName="Shirley Rd">
    <Position Lat="-4.350813804800000e+001" Long="1.726575428360000e+002" />
  </Platform>
  <Platform PlatformTag="468" PlatformNo="43908" Name="The Palms" BearingToRoad="5.9466398e-001" RoadName="Shirley Rd">
    <Position Lat="-4.350811243000000e+001" Long="1.726615368000000e+002" />
  </Platform>
  <Platform PlatformTag="469" PlatformNo="32620" Name="Soleares Ave &amp; Mccormacks Bay Rd" BearingToRoad="2.8222922e+002" RoadName="Soleares Ave">
    <Position Lat="-4.355784905300000e+001" Long="1.727225419750000e+002" />
  </Platform>
  <Platform PlatformTag="470" PlatformNo="32727" Name="Soleares Ave &amp; Cadiz Ln" BearingToRoad="1.1683492e+002" RoadName="Soleares Ave">
    <Position Lat="-4.356155628100000e+001" Long="1.727213154340000e+002" />
  </Platform>
  <Platform PlatformTag="471" PlatformNo="30879" Name="Soleares Ave &amp; Valencia Ln" BearingToRoad="2.8121738e+002" RoadName="Soleares Ave">
    <Position Lat="-4.356235859800000e+001" Long="1.727213482300000e+002" />
  </Platform>
  <Platform PlatformTag="472" PlatformNo="32736" Name="Soleares Ave &amp; Toledo Pl" BearingToRoad="1.5289256e+001" RoadName="Soleares Ave">
    <Position Lat="-4.356402257000000e+001" Long="1.727210680000000e+002" />
  </Platform>
  <Platform PlatformTag="473" PlatformNo="30880" Name="Soleares Ave &amp; Santa Maria Ave" BearingToRoad="2.1000070e+002" RoadName="Soleares Ave">
    <Position Lat="-4.356399285300000e+001" Long="1.727213000800000e+002" />
  </Platform>
  <Platform PlatformTag="474" PlatformNo="30851" Name="Soleares Ave &amp; Mt Pleasant Rd" BearingToRoad="7.0701225e+001" RoadName="Soleares Ave">
    <Position Lat="-4.356599698300000e+001" Long="1.727203489160000e+002" />
  </Platform>
  <Platform PlatformTag="475" PlatformNo="30867" Name="Soleares Ave &amp; Mt Pleasant Rd" BearingToRoad="2.4790767e+002" RoadName="Soleares Ave">
    <Position Lat="-4.356634671600000e+001" Long="1.727209253080000e+002" />
  </Platform>
  <Platform PlatformTag="476" PlatformNo="36482" Name="Soleares Ave &amp; Mt Pleasant Rd" BearingToRoad="1.2670947e+002" RoadName="Soleares Ave">
    <Position Lat="-4.356706397400000e+001" Long="1.727205307780000e+002" />
  </Platform>
  <Platform PlatformTag="477" PlatformNo="25090" Name="Somme St &amp; St Albans St" BearingToRoad="2.3725618e+002" RoadName="Somme St">
    <Position Lat="-4.350890918000000e+001" Long="1.726284961000000e+002" />
  </Platform>
  <Platform PlatformTag="478" PlatformNo="25440" Name="Somme St &amp; St Albans St" BearingToRoad="5.7256180e+001" RoadName="Somme St">
    <Position Lat="-4.350888952000000e+001" Long="1.726282755000000e+002" />
  </Platform>
  <Platform PlatformTag="479" PlatformNo="25251" Name="Somme St &amp; Hawkesbury Ave" BearingToRoad="5.7650955e+001" RoadName="Somme St">
    <Position Lat="-4.350741140000000e+001" Long="1.726268645000000e+002" />
  </Platform>
  <Platform PlatformTag="480" PlatformNo="25267" Name="Somme St &amp; Hawkesbury Ave" BearingToRoad="2.3765096e+002" RoadName="Somme St">
    <Position Lat="-4.350727522000000e+001" Long="1.726269448000000e+002" />
  </Platform>
  <Platform PlatformTag="481" PlatformNo="25185" Name="Springfield Rd &amp; Bealey Ave" BearingToRoad="9.1169571e+001" RoadName="Springfield Rd">
    <Position Lat="-4.352038455000000e+001" Long="1.726324319000000e+002" />
  </Platform>
  <Platform PlatformTag="482" PlatformNo="41854" Name="Bealey Ave  " BearingToRoad="9.0686577e+001" RoadName="Springfield Rd">
    <Position Lat="-4.351765619000000e+001" Long="1.726324960000000e+002" />
  </Platform>
  <Platform PlatformTag="483" PlatformNo="40933" Name="Bealey Ave" BearingToRoad="2.7068658e+002" RoadName="Springfield Rd">
    <Position Lat="-4.351763295000000e+001" Long="1.726326587000000e+002" />
  </Platform>
